[
{
"id": 1,
"weather": "global/stations/92036",
"weatherhist": "604131",
"active": "Y",
"lat": -2.0941169,
"lon": 146.8760951,
"distance": 60,
"zoom": 10,
"region_id": 991,
"country_id": 956,
"region_name": "Pacific Ocean",
"country_name": "Papua New Guinea",
"location_name": "Admiralty Islands (Manus)",
"is_un": 0,
"is_mtp_location": 1,
"admin_level": 4,
"featured_img": "222OsK3a8G6aQAiVoeSyw1",
"airports": "MAS",
"visitors": 101,
"rank": 82,
"visitors_un": 0,
"rank_un": 0
},
{
"id": 2,
"weather": "global/stations/91954",
"weatherhist": "45919",
"active": "Y",
"lat": -23,
"lon": -150,
"distance": 270,
"zoom": 4,
"region_id": 991,
"country_id": 264,
"region_name": "Pacific Ocean",
"country_name": "France",
"location_name": "Austral Islands",
"is_un": 0,
"is_mtp_location": 1,
"admin_level": 4,
"featured_img": "25dRJOS9qKQTneQc4LEjMr",
"airports": "TUB, RUR",
"visitors": 108,
"rank": 91,
"visitors_un": 0,
"rank_un": 0
},
{
"id": 3,
"weather": "global/stations/94926",
"weatherhist": "62949",
"active": "Y",
"lat": -35.4734679,
"lon": 149.0123679,
"distance": 30,
"zoom": 7,
"region_id": 991,
"country_id": 917,
"region_name": "Pacific Ocean",
"country_name": "Australia",
"location_name": "Australian Capital Territory",
"is_un": 0,
"is_mtp_location": 1,
"admin_level": 4,
"featured_img": "2BDLIc3hB2Q4oI3ilO8IrV",
"airports": "CBR",
"visitors": 3275,
"rank": 659,
"visitors_un": 0,
"rank_un": 0
},
{
"id": 4,
"weather": "global/stations/91701",
"weatherhist": "10719",
"active": "Y",
"lat": -0.05,
"lon": -176.5,
"distance": 99,
"zoom": 8,
"region_id": 991,
"country_id": 977,
"region_name": "Pacific Ocean",
"country_name": "United States",
"location_name": "Baker Island (and Howland Island)",
"is_un": 0,
"is_mtp_location": 1,
"admin_level": 4,
"featured_img": "2G65w1kKIfp7tQp9UFwhgb",
"airports": "APW",
"visitors": 30,
"rank": 23,
"visitors_un": 0,
"rank_un": 0
},
{
"id": 5,
"weather": "global/stations/91533",
"weatherhist": "33519",
"active": "Y",
"lat": -0.8577652,
"lon": 169.5322424,
"distance": 99,
"zoom": 10,
"region_id": 991,
"country_id": 944,
"region_name": "Pacific Ocean",
"country_name": "Kiribati",
"location_name": "Banaba Island",
"is_un": 0,
"is_mtp_location": 1,
"admin_level": 4,
"featured_img": "2JqGGq3htv2aHySCcM3T8n",
"airports": "TRW",
"visitors": 31,
"rank": 24,
"visitors_un": 0,
"rank_un": 0
},
{
"id": 6,
"weather": "global/stations/92084",
"weatherhist": "48029",
"active": "Y",
"lat": -6.053602,
"lon": 155.1907309,
"distance": 100,
"zoom": 6,
"region_id": 991,
"country_id": 956,
"region_name": "Pacific Ocean",
"country_name": "Papua New Guinea",
"location_name": "Bougainville Province",
"is_un": 0,
"is_mtp_location": 1,
"admin_level": 4,
"featured_img": "2MoyJRQeA5n1QI5du5dM5t",
"airports": "BUA",
"visitors": 145,
"rank": 110,
"visitors_un": 0,
"rank_un": 0
},
{
"id": 7,
"weather": "global/stations/93986",
"weatherhist": "68939",
"active": "Y",
"lat": -43.9120964,
"lon": -176.5433025,
"distance": 99,
"zoom": 5,
"region_id": 991,
"country_id": 44,
"region_name": "Pacific Ocean",
"country_name": "New Zealand",
"location_name": "Chatham Islands",
"is_un": 0,
"is_mtp_location": 1,
"admin_level": 4,
"featured_img": "1f3AqmPIPQz2pJlsoGuadR",
"airports": "CHT",
"visitors": 147,
"rank": 112,
"visitors_un": 0,
"rank_un": 0
},
{
"id": 8,
"weather": "global/stations/91574",
"weatherhist": "47519",
"active": "Y",
"lat": -19.35,
"lon": 158.666667,
"distance": 17,
"zoom": 6,
"region_id": 991,
"country_id": 264,
"region_name": "Pacific Ocean",
"country_name": "France",
"location_name": "Chesterfield Islands",
"is_un": 0,
"is_mtp_location": 1,
"admin_level": 4,
"featured_img": "1mtbkD1ydm65elv4F2ASwn",
"airports": "NOU",
"visitors": 16,
"rank": 9,
"visitors_un": 0,
"rank_un": 0
},
{
"id": 9,
"weather": "global/stations/91334",
"weatherhist": "43319",
"active": "Y",
"lat": 7.3554221,
"lon": 151.5962882,
"distance": 20,
"zoom": 5,
"region_id": 991,
"country_id": 933,
"region_name": "Pacific Ocean",
"country_name": "Federated States of Micronesia",
"location_name": "Chuuk State",
"is_un": 0,
"is_mtp_location": 1,
"admin_level": 4,
"featured_img": "1s4v39lYa5nYOSO5pLW3OH",
"airports": "TKK",
"visitors": 431,
"rank": 243,
"visitors_un": 0,
"rank_un": 0
},
{
"id": 10,
"weather": "global/stations/78825",
"weatherhist": "52887",
"active": "Y",
"lat": 10.284842,
"lon": -109.2162498,
"distance": 3,
"zoom": 5,
"region_id": 991,
"country_id": 264,
"region_name": "Pacific Ocean",
"country_name": "France",
"location_name": "Clipperton Island",
"is_un": 0,
"is_mtp_location": 1,
"admin_level": 4,
"featured_img": "1x6SoJfKgIBRfeU4D0YJ6D",
"airports": "ZLO",
"visitors": 28,
"rank": 22,
"visitors_un": 0,
"rank_un": 0
},
{
"id": 11,
"weather": "global/stations/91693",
"weatherhist": "39619",
"active": "Y",
"lat": -21.738333,
"lon": 174.64,
"distance": 99,
"zoom": 6,
"region_id": 991,
"country_id": 934,
"region_name": "Pacific Ocean",
"country_name": "Fiji",
"location_name": "Conway Reef (Cevu-i-Ra)",
"is_un": 0,
"is_mtp_location": 1,
"admin_level": 4,
"featured_img": "22xhU2EtteRY8XdAbsmzrJ",
"airports": "NAN, SUV",
"visitors": 78,
"rank": 67,
"visitors_un": 0,
"rank_un": 0
},
{
"id": 12,
"weather": "global/stations/91843",
"weatherhist": "34819",
"active": "Y",
"lat": -21.236736,
"lon": -159.777671,
"distance": 230,
"zoom": 4,
"region_id": 991,
"country_id": 925,
"region_name": "Pacific Ocean",
"country_name": "Cook Islands",
"location_name": "Cook Islands (Southern)",
"is_un": 0,
"is_mtp_location": 1,
"admin_level": 4,
"featured_img": "2A6Om2AgCNy7eJOrW8E8FB",
"airports": "RAR",
"visitors": 1037,
"rank": 423,
"visitors_un": 0,
"rank_un": 0
},
{
"id": 13,
"weather": "global/stations/94299",
"weatherhist": "99249",
"active": "Y",
"lat": -16,
"lon": 152,
"distance": 640,
"zoom": 5,
"region_id": 991,
"country_id": 917,
"region_name": "Pacific Ocean",
"country_name": "Australia",
"location_name": "Coral Sea Islands Territory",
"is_un": 0,
"is_mtp_location": 1,
"admin_level": 4,
"featured_img": "2GtyT8SDNMbmqdFUjKu1Ph",
"airports": "CNS",
"visitors": 612,
"rank": 305,
"visitors_un": 0,
"rank_un": 0
},
{
"id": 14,
"weather": "global/stations/47945",
"weatherhist": "54974",
"active": "Y",
"lat": 25.848778,
"lon": 131.2507325,
"distance": 10,
"zoom": 6,
"region_id": 991,
"country_id": 943,
"region_name": "Pacific Ocean",
"country_name": "Japan",
"location_name": "Daito Islands",
"is_un": 0,
"is_mtp_location": 1,
"admin_level": 4,
"featured_img": "2OGyZeaHbJJ7m2BzaZd3mv",
"airports": "MMD",
"visitors": 58,
"rank": 49,
"visitors_un": 0,
"rank_un": 0
},
{
"id": 15,
"weather": "global/stations/91961",
"weatherhist": "16919",
"active": "Y",
"lat": -24.6807263,
"lon": -124.787888,
"distance": 99,
"zoom": 7,
"region_id": 991,
"country_id": 976,
"region_name": "Pacific Ocean",
"country_name": "United Kingdom",
"location_name": "Ducie Island",
"is_un": 0,
"is_mtp_location": 1,
"admin_level": 4,
"featured_img": "2UNMel3hvuvKJmltUnQRWn",
"airports": "GMR",
"visitors": 69,
"rank": 60,
"visitors_un": 0,
"rank_un": 0
},
{
"id": 16,
"weather": "global/stations/85469",
"weatherhist": "96458",
"active": "Y",
"lat": -27.1211919,
"lon": -109.3664237,
"distance": 10,
"zoom": 10,
"region_id": 991,
"country_id": 921,
"region_name": "Pacific Ocean",
"country_name": "Chile",
"location_name": "Easter Island",
"is_un": 0,
"is_mtp_location": 1,
"admin_level": 4,
"featured_img": "2aZGrRRtXxmMHjXVO2WnnR",
"airports": "IPQ",
"visitors": 1424,
"rank": 480,
"visitors_un": 0,
"rank_un": 0
},
{
"id": 17,
"weather": "global/stations/91689",
"weatherhist": "98619",
"active": "Y",
"lat": -18,
"lon": 178,
"distance": 170,
"zoom": 7,
"region_id": 991,
"country_id": 934,
"region_name": "Pacific Ocean",
"country_name": "Fiji",
"location_name": "Fiji Islands",
"is_un": 0,
"is_mtp_location": 1,
"admin_level": 4,
"featured_img": "2gepD1SanBmECSodFd5KNJ",
"airports": "NAN, SUV",
"visitors": 2696,
"rank": 621,
"visitors_un": 0,
"rank_un": 0
},
{
"id": 18,
"weather": "global/stations/84008",
"weatherhist": "80048",
"active": "Y",
"lat": -0.8292784,
"lon": -90.9820668,
"distance": 100,
"zoom": 7,
"region_id": 992,
"country_id": 930,
"region_name": "South America",
"country_name": "Ecuador",
"location_name": "Galapagos Islands",
"is_un": 0,
"is_mtp_location": 1,
"admin_level": 4,
"featured_img": "2pgqHjM1MW9aCz9e2O76Uv",
"airports": "GPS",
"visitors": 1938,
"rank": 548,
"visitors_un": 0,
"rank_un": 0
},
{
"id": 19,
"weather": "global/stations/91948",
"weatherhist": "84919",
"active": "Y",
"lat": -23.1096583,
"lon": -134.9743477,
"distance": 10,
"zoom": 6,
"region_id": 991,
"country_id": 264,
"region_name": "Pacific Ocean",
"country_name": "France",
"location_name": "Gambier Islands",
"is_un": 0,
"is_mtp_location": 1,
"admin_level": 4,
"featured_img": "2wt81bADK7TkK5s0faKwqT",
"airports": "GMR",
"visitors": 135,
"rank": 106,
"visitors_un": 0,
"rank_un": 0
},
{
"id": 20,
"weather": "global/stations/91212",
"weatherhist": "21219",
"active": "Y",
"lat": 13.444304,
"lon": 144.793731,
"distance": 20,
"zoom": 5,
"region_id": 991,
"country_id": 977,
"region_name": "Pacific Ocean",
"country_name": "United States",
"location_name": "Guam",
"is_un": 0,
"is_mtp_location": 1,
"admin_level": 4,
"featured_img": "32EbGxPG6kwTgY6QwIf4KT",
"airports": "GUM",
"visitors": 1240,
"rank": 453,
"visitors_un": 0,
"rank_un": 0
},
{
"id": 21,
"weather": "global/stations/91182",
"weatherhist": "28119",
"active": "Y",
"lat": 20.8760986,
"lon": -156.4605458,
"distance": 600,
"zoom": 5,
"region_id": 991,
"country_id": 977,
"region_name": "Pacific Ocean",
"country_name": "United States",
"location_name": "Hawaiian Islands",
"is_un": 0,
"is_mtp_location": 1,
"admin_level": 4,
"featured_img": "38rhQpXpK7ivPlGRU9q1oD",
"airports": "HNL, OGG, LIH",
"visitors": 5738,
"rank": 794,
"visitors_un": 0,
"rank_un": 0
},
{
"id": 22,
"weather": "global/stations/91961",
"weatherhist": "16919",
"active": "Y",
"lat": -24.3743769,
"lon": -128.3271112,
"distance": 99,
"zoom": 8,
"region_id": 991,
"country_id": 976,
"region_name": "Pacific Ocean",
"country_name": "United Kingdom",
"location_name": "Henderson Island",
"is_un": 0,
"is_mtp_location": 1,
"admin_level": 4,
"featured_img": "3FrZvLb8dByYB8WGcb7tWf",
"airports": "GMR",
"visitors": 85,
"rank": 72,
"visitors_un": 0,
"rank_un": 0
},
{
"id": 23,
"weather": "global/stations/91901",
"weatherhist": "10919",
"active": "Y",
"lat": -0.3743503,
"lon": -159.9967206,
"distance": 99,
"zoom": 5,
"region_id": 991,
"country_id": 977,
"region_name": "Pacific Ocean",
"country_name": "United States",
"location_name": "Jarvis Island",
"is_un": 0,
"is_mtp_location": 1,
"admin_level": 4,
"featured_img": "3MgoUVLSEse5lHLSQclhPx",
"airports": "CXI",
"visitors": 21,
"rank": 11,
"visitors_un": 0,
"rank_un": 0
},
{
"id": 24,
"weather": "global/stations/91275",
"weatherhist": "57219",
"active": "Y",
"lat": 16.7322716,
"lon": -169.5308371,
"distance": 2,
"zoom": 5,
"region_id": 991,
"country_id": 977,
"region_name": "Pacific Ocean",
"country_name": "United States",
"location_name": "Johnston Atoll",
"is_un": 0,
"is_mtp_location": 1,
"admin_level": 4,
"featured_img": "3NOWi9rZtYTzTzgWb8TfAL",
"airports": "HNL",
"visitors": 104,
"rank": 85,
"visitors_un": 0,
"rank_un": 0
},
{
"id": 25,
"weather": "global/stations/91997",
"weatherhist": "79919",
"active": "Y",
"lat": -29.2666667,
"lon": -177.9166667,
"distance": 55,
"zoom": 5,
"region_id": 991,
"country_id": 44,
"region_name": "Pacific Ocean",
"country_name": "New Zealand",
"location_name": "Kermadec Islands",
"is_un": 0,
"is_mtp_location": 1,
"admin_level": 4,
"featured_img": "3Sv93o8UijkyXUv9UhFYQH",
"airports": "AKL",
"visitors": 44,
"rank": 35,
"visitors_un": 0,
"rank_un": 0
},
{
"id": 26,
"weather": "global/stations/91385",
"weatherhist": "58319",
"active": "Y",
"lat": 6.4331783,
"lon": -162.387346,
"distance": 4,
"zoom": 5,
"region_id": 991,
"country_id": 977,
"region_name": "Pacific Ocean",
"country_name": "United States",
"location_name": "Kingman Reef",
"is_un": 0,
"is_mtp_location": 1,
"admin_level": 4,
"featured_img": "3YVUcwDHgaclRotqGkFGjF",
"airports": "CXI",
"visitors": 26,
"rank": 19,
"visitors_un": 0,
"rank_un": 0
},
{
"id": 27,
"weather": "global/stations/91610",
"weatherhist": "01619",
"active": "Y",
"lat": -1.361138,
"lon": 176.4521828,
"distance": 300,
"zoom": 6,
"region_id": 991,
"country_id": 944,
"region_name": "Pacific Ocean",
"country_name": "Kiribati",
"location_name": "Gilbert Islands",
"is_un": 0,
"is_mtp_location": 1,
"admin_level": 4,
"featured_img": "3YtUNV52uldDlr7wXkoFmH",
"airports": "TRW",
"visitors": 291,
"rank": 198,
"visitors_un": 0,
"rank_un": 0
},
{
"id": 28,
"weather": "global/stations/91356",
"weatherhist": "65319",
"active": "Y",
"lat": 5.3095618,
"lon": 162.9814877,
"distance": 8,
"zoom": 6,
"region_id": 991,
"country_id": 933,
"region_name": "Pacific Ocean",
"country_name": "Federated States of Micronesia",
"location_name": "Kosrae State",
"is_un": 0,
"is_mtp_location": 1,
"admin_level": 4,
"featured_img": "3fDOdnK60W9UIy8LKFjhTZ",
"airports": "KSA",
"visitors": 323,
"rank": 209,
"visitors_un": 0,
"rank_un": 0
},
{
"id": 29,
"weather": "global/stations/91066",
"weatherhist": "66019",
"active": "Y",
"lat": 28.392533,
"lon": -178.2935519,
"distance": 5,
"zoom": 6,
"region_id": 991,
"country_id": 977,
"region_name": "Pacific Ocean",
"country_name": "United States",
"location_name": "Kure Island",
"is_un": 0,
"is_mtp_location": 1,
"admin_level": 4,
"featured_img": "3flweIbSNaIHT1MbMukIcH",
"airports": "MDY",
"visitors": 15,
"rank": 8,
"visitors_un": 0,
"rank_un": 0
},
{
"id": 30,
"weather": "global/stations/91492",
"weatherhist": "29419",
"active": "Y",
"lat": -3.3166666,
"lon": -158.88333,
"distance": 180,
"zoom": 4,
"region_id": 991,
"country_id": 944,
"region_name": "Pacific Ocean",
"country_name": "Kiribati",
"location_name": "Northern Line Islands",
"is_un": 0,
"is_mtp_location": 1,
"admin_level": 4,
"featured_img": "3lwPwCbk4DTqRbrsEXvmv7",
"airports": "CXI",
"visitors": 226,
"rank": 166,
"visitors_un": 0,
"rank_un": 0
},
{
"id": 31,
"weather": "global/stations/91903",
"weatherhist": "30919",
"active": "Y",
"lat": -9,
"lon": -154,
"distance": 500,
"zoom": 5,
"region_id": 991,
"country_id": 944,
"region_name": "Pacific Ocean",
"country_name": "Kiribati",
"location_name": "Central and Southern Line Islands",
"is_un": 0,
"is_mtp_location": 1,
"admin_level": 4,
"featured_img": "3qtpxkgtFYy8jRNcGRyv5p",
"airports": "CXI",
"visitors": 55,
"rank": 43,
"visitors_un": 0,
"rank_un": 0
},
{
"id": 32,
"weather": "global/stations/94995",
"weatherhist": "59949",
"active": "Y",
"lat": -31.5553263,
"lon": 159.0821211,
"distance": 5,
"zoom": 10,
"region_id": 991,
"country_id": 917,
"region_name": "Pacific Ocean",
"country_name": "Australia",
"location_name": "Lord Howe Island",
"is_un": 0,
"is_mtp_location": 1,
"admin_level": 4,
"featured_img": "3xtJ5KjOnePnhmOzlCXUtx",
"airports": "LDH",
"visitors": 235,
"rank": 168,
"visitors_un": 0,
"rank_un": 0
},
{
"id": 33,
"weather": "global/stations/91579",
"weatherhist": "97519",
"active": "Y",
"lat": -21,
"lon": 167,
"distance": 80,
"zoom": 8,
"region_id": 991,
"country_id": 264,
"region_name": "Pacific Ocean",
"country_name": "France",
"location_name": "Loyalty Islands",
"is_un": 0,
"is_mtp_location": 1,
"admin_level": 4,
"featured_img": "44RXZX3tT72mzePaf7bTzx",
"airports": "LIF, UVE, MEE",
"visitors": 220,
"rank": 160,
"visitors_un": 0,
"rank_un": 0
},
{
"id": 34,
"weather": "global/stations/91925",
"weatherhist": "52919",
"active": "Y",
"lat": -9.7812162,
"lon": -139.0817124,
"distance": 125,
"zoom": 4,
"region_id": 991,
"country_id": 264,
"region_name": "Pacific Ocean",
"country_name": "France",
"location_name": "Marquesas Islands",
"is_un": 0,
"is_mtp_location": 1,
"admin_level": 4,
"featured_img": "4ATyItGK3hxEVLy6NM2GSb",
"airports": "NHV",
"visitors": 429,
"rank": 242,
"visitors_un": 0,
"rank_un": 0
},
{
"id": 35,
"weather": "global/stations/91376",
"weatherhist": "67319",
"active": "Y",
"lat": 7.131474,
"lon": 171.184478,
"distance": 400,
"zoom": 6,
"region_id": 991,
"country_id": 35,
"region_name": "Pacific Ocean",
"country_name": "Marshall Islands",
"location_name": "Marshall Islands",
"is_un": 1,
"is_mtp_location": 1,
"admin_level": 2,
"featured_img": "4Fpc4QFHTx3QKq8YGz70CT",
"airports": "MAJ",
"visitors": 554,
"rank": 288,
"visitors_un": 554,
"rank_un": 17
},
{
"id": 36,
"weather": "global/stations/94299",
"weatherhist": "99249",
"active": "Y",
"lat": -17.4166667,
"lon": 155.8333333,
"distance": 2,
"zoom": 6,
"region_id": 991,
"country_id": 917,
"region_name": "Pacific Ocean",
"country_name": "Australia",
"location_name": "Mellish Reef",
"is_un": 0,
"is_mtp_location": 1,
"admin_level": 4,
"featured_img": "4Gki0xC5ymCEPhivcTqRnZ",
"airports": "CNS",
"visitors": 85,
"rank": 72,
"visitors_un": 0,
"rank_un": 0
},
{
"id": 37,
"weather": "global/stations/91066",
"weatherhist": "66019",
"active": "Y",
"lat": 28.2100759,
"lon": -177.3761105,
"distance": 4,
"zoom": 6,
"region_id": 991,
"country_id": 977,
"region_name": "Pacific Ocean",
"country_name": "United States",
"location_name": "Midway Island",
"is_un": 0,
"is_mtp_location": 1,
"admin_level": 4,
"featured_img": "4Md4ib52OR1kHG8qEPbFoT",
"airports": "MDW",
"visitors": 163,
"rank": 123,
"visitors_un": 0,
"rank_un": 0
},
{
"id": 38,
"weather": "global/stations/47991",
"weatherhist": "19974",
"active": "Y",
"lat": 24.2867829,
"lon": 153.9807774,
"distance": 99,
"zoom": 5,
"region_id": 991,
"country_id": 943,
"region_name": "Pacific Ocean",
"country_name": "Japan",
"location_name": "Minami Torishima (Marcus Island)",
"is_un": 0,
"is_mtp_location": 1,
"admin_level": 4,
"featured_img": "4N7Wv2kT6UrP8bzNZ5eRun",
"airports": "NRT, MUS",
"visitors": 24,
"rank": 14,
"visitors_un": 0,
"rank_un": 0
},
{
"id": 39,
"weather": "global/stations/91531",
"weatherhist": "13519",
"active": "Y",
"lat": -0.522778,
"lon": 166.931503,
"distance": 99,
"zoom": 7,
"region_id": 991,
"country_id": 39,
"region_name": "Pacific Ocean",
"country_name": "Nauru",
"location_name": "Nauru",
"is_un": 1,
"is_mtp_location": 1,
"admin_level": 2,
"featured_img": "4Nb5yCiBg80PdpEsNZULj3",
"airports": "INU",
"visitors": 302,
"rank": 201,
"visitors_un": 302,
"rank_un": 1
},
{
"id": 40,
"weather": "global/stations/92072",
"weatherhist": "27029",
"active": "Y",
"lat": -6.04193,
"lon": 150.47044,
"distance": 170,
"zoom": 8,
"region_id": 991,
"country_id": 956,
"region_name": "Pacific Ocean",
"country_name": "Papua New Guinea",
"location_name": "New Britain",
"is_un": 0,
"is_mtp_location": 1,
"admin_level": 4,
"featured_img": "4UHx0l59vPc6XAkslEZYwX",
"airports": "RAB",
"visitors": 311,
"rank": 204,
"visitors_un": 0,
"rank_un": 0
},
{
"id": 41,
"weather": "global/stations/91592",
"weatherhist": "29519",
"active": "Y",
"lat": -20.904305,
"lon": 165.618042,
"distance": 180,
"zoom": 7,
"region_id": 991,
"country_id": 264,
"region_name": "Pacific Ocean",
"country_name": "France",
"location_name": "New Caledonia (mainland)",
"is_un": 0,
"is_mtp_location": 1,
"admin_level": 4,
"featured_img": "4cfHl8KBc8tghCdBHKkm1l",
"airports": "NOU, GEA",
"visitors": 857,
"rank": 381,
"visitors_un": 0,
"rank_un": 0
},
{
"id": 42,
"weather": "global/stations/94076",
"weatherhist": "67049",
"active": "Y",
"lat": -4.2853256,
"lon": 152.9205918,
"distance": 160,
"zoom": 6,
"region_id": 991,
"country_id": 956,
"region_name": "Pacific Ocean",
"country_name": "Papua New Guinea",
"location_name": "New Ireland Province",
"is_un": 0,
"is_mtp_location": 1,
"admin_level": 4,
"featured_img": "4hkWA0vi5yiV8fpJfP5Hkj",
"airports": "KVG",
"visitors": 157,
"rank": 116,
"visitors_un": 0,
"rank_un": 0
},
{
"id": 43,
"weather": "global/stations/94767",
"weatherhist": "76749",
"active": "Y",
"lat": -33.864174,
"lon": 151.2052868,
"distance": 460,
"zoom": 5,
"region_id": 991,
"country_id": 917,
"region_name": "Pacific Ocean",
"country_name": "Australia",
"location_name": "New South Wales",
"is_un": 0,
"is_mtp_location": 1,
"admin_level": 4,
"featured_img": "4meV0w8eZknTyLmnOhUBzh",
"airports": "SYD",
"visitors": 6958,
"rank": 826,
"visitors_un": 0,
"rank_un": 0
},
{
"id": 45,
"weather": "global/stations/91822",
"weatherhist": "22819",
"active": "Y",
"lat": -19.054445,
"lon": -169.867233,
"distance": 10,
"zoom": 6,
"region_id": 991,
"country_id": 45,
"region_name": "Pacific Ocean",
"country_name": "Niue",
"location_name": "Niue",
"is_un": 0,
"is_mtp_location": 1,
"admin_level": 2,
"featured_img": "25sTZJOZjocnP0NA46Qnoj",
"airports": "IUE",
"visitors": 220,
"rank": 160,
"visitors_un": 0,
"rank_un": 0
},
{
"id": 46,
"weather": "global/stations/94996",
"weatherhist": "69949",
"active": "Y",
"lat": -29.0230638,
"lon": 167.939597,
"distance": 7,
"zoom": 6,
"region_id": 991,
"country_id": 917,
"region_name": "Pacific Ocean",
"country_name": "Australia",
"location_name": "Norfolk Island",
"is_un": 0,
"is_mtp_location": 1,
"admin_level": 4,
"featured_img": "29y0Pnv226qnAPGzmbBs8T",
"airports": "NLK",
"visitors": 271,
"rank": 185,
"visitors_un": 0,
"rank_un": 0
},
{
"id": 47,
"weather": "global/stations/91809",
"weatherhist": "90819",
"active": "Y",
"lat": -10.4274645,
"lon": -160.9903438,
"distance": 125,
"zoom": 5,
"region_id": 991,
"country_id": 925,
"region_name": "Pacific Ocean",
"country_name": "Cook Islands",
"location_name": "Manihiki (and Penrhyn)",
"is_un": 0,
"is_mtp_location": 1,
"admin_level": 4,
"featured_img": "2Ff9CHGMGbOicz3Nza9ZOf",
"airports": "MHX",
"visitors": 64,
"rank": 54,
"visitors_un": 0,
"rank_un": 0
},
{
"id": 48,
"weather": "global/stations/91232",
"weatherhist": "23219",
"active": "Y",
"lat": 15.1520486,
"lon": 145.7220707,
"distance": 90,
"zoom": 5,
"region_id": 991,
"country_id": 977,
"region_name": "Pacific Ocean",
"country_name": "United States",
"location_name": "Northern Marianas",
"is_un": 0,
"is_mtp_location": 1,
"admin_level": 4,
"featured_img": "2KBN15g9AoC4j8TVbe85PR",
"airports": "SPN",
"visitors": 469,
"rank": 266,
"visitors_un": 0,
"rank_un": 0
},
{
"id": 49,
"weather": "global/stations/94120",
"weatherhist": "02149",
"active": "Y",
"lat": -19.4914108,
"lon": 132.5509603,
"distance": 600,
"zoom": 5,
"region_id": 991,
"country_id": 917,
"region_name": "Pacific Ocean",
"country_name": "Australia",
"location_name": "Northern Territory",
"is_un": 0,
"is_mtp_location": 1,
"admin_level": 4,
"featured_img": "2NxrGaPH7QCbBbb8rlc2Yv",
"airports": "ASP, DRW",
"visitors": 3120,
"rank": 649,
"visitors_un": 0,
"rank_un": 0
},
{
"id": 50,
"weather": "global/stations/91961",
"weatherhist": "16919",
"active": "Y",
"lat": -23.9229874,
"lon": -130.7411998,
"distance": 99,
"zoom": 7,
"region_id": 991,
"country_id": 976,
"region_name": "Pacific Ocean",
"country_name": "United Kingdom",
"location_name": "Oeno Island",
"is_un": 0,
"is_mtp_location": 1,
"admin_level": 4,
"featured_img": "2U2dX9G1JLpc6aFEBAmVBt",
"airports": "GMR",
"visitors": 41,
"rank": 33,
"visitors_un": 0,
"rank_un": 0
},
{
"id": 51,
"weather": "global/stations/47971",
"weatherhist": "17974",
"active": "Y",
"lat": 27.0943662,
"lon": 142.1919184,
"distance": 150,
"zoom": 7,
"region_id": 991,
"country_id": 943,
"region_name": "Pacific Ocean",
"country_name": "Japan",
"location_name": "Ogasawara",
"is_un": 0,
"is_mtp_location": 1,
"admin_level": 4,
"featured_img": "2XfGPFitS5v0HelX0pzPmH",
"airports": "HND",
"visitors": 125,
"rank": 99,
"visitors_un": 0,
"rank_un": 0
},
{
"id": 52,
"weather": "global/stations/91408",
"weatherhist": "80419",
"active": "Y",
"lat": 7.51498,
"lon": 134.58252,
"distance": 50,
"zoom": 8,
"region_id": 991,
"country_id": 52,
"region_name": "Pacific Ocean",
"country_name": "Palau",
"location_name": "Palau",
"is_un": 1,
"is_mtp_location": 1,
"admin_level": 2,
"featured_img": "2dCJIDDa8nDv82iJSUxKlZ",
"airports": "ROR",
"visitors": 773,
"rank": 355,
"visitors_un": 773,
"rank_un": 30
},
{
"id": 53,
"weather": "global/stations/91385",
"weatherhist": "58319",
"active": "Y",
"lat": 5.8885026,
"lon": -162.0786656,
"distance": 2,
"zoom": 5,
"region_id": 991,
"country_id": 977,
"region_name": "Pacific Ocean",
"country_name": "United States",
"location_name": "Palmyra Atoll",
"is_un": 0,
"is_mtp_location": 1,
"admin_level": 4,
"featured_img": "2hvtraiv8Mxzyxgk8RMJLx",
"airports": "HNL",
"visitors": 37,
"rank": 30,
"visitors_un": 0,
"rank_un": 0
},
{
"id": 54,
"weather": "global/stations/92035",
"weatherhist": "53029",
"active": "Y",
"lat": -6.314993,
"lon": 143.95555,
"distance": 400,
"zoom": 6,
"region_id": 991,
"country_id": 956,
"region_name": "Pacific Ocean",
"country_name": "Papua New Guinea",
"location_name": "Papua New Guinea (other)",
"is_un": 0,
"is_mtp_location": 1,
"admin_level": 4,
"featured_img": "6gY1n9c8awcD12uHQSUCle",
"airports": "POM",
"visitors": 867,
"rank": 386,
"visitors_un": 0,
"rank_un": 0
},
{
"id": 55,
"weather": "global/stations/91699",
"weatherhist": "99619",
"active": "Y",
"lat": 20.4166667,
"lon": 136.0833333,
"distance": 99,
"zoom": 5,
"region_id": 991,
"country_id": 943,
"region_name": "Pacific Ocean",
"country_name": "Japan",
"location_name": "Parece Vela (Okino Torishima)",
"is_un": 0,
"is_mtp_location": 1,
"admin_level": 4,
"featured_img": "3Y3LSyXUnxY4Zk4T9musvN",
"airports": "MMD",
"visitors": 35,
"rank": 27,
"visitors_un": 0,
"rank_un": 0
},
{
"id": 56,
"weather": "global/stations/91701",
"weatherhist": "10719",
"active": "Y",
"lat": -4.4531479,
"lon": -171.2449677,
"distance": 175,
"zoom": 7,
"region_id": 991,
"country_id": 944,
"region_name": "Pacific Ocean",
"country_name": "Kiribati",
"location_name": "Phoenix Islands",
"is_un": 0,
"is_mtp_location": 1,
"admin_level": 4,
"featured_img": "3b3P4EzSzriFEu4bWtqkxB",
"airports": "TRW",
"visitors": 59,
"rank": 50,
"visitors_un": 0,
"rank_un": 0
},
{
"id": 57,
"weather": "global/stations/91961",
"weatherhist": "16919",
"active": "Y",
"lat": -25.0696495,
"lon": -130.1229696,
"distance": 99,
"zoom": 8,
"region_id": 991,
"country_id": 976,
"region_name": "Pacific Ocean",
"country_name": "United Kingdom",
"location_name": "Pitcairn Island",
"is_un": 0,
"is_mtp_location": 1,
"admin_level": 4,
"featured_img": "3cTivzMmV21sopxuk5YOiL",
"airports": "GMR",
"visitors": 207,
"rank": 150,
"visitors_un": 0,
"rank_un": 0
},
{
"id": 58,
"weather": "global/stations/91348",
"weatherhist": "84319",
"active": "Y",
"lat": 6.8541254,
"lon": 158.2623822,
"distance": 10,
"zoom": 10,
"region_id": 991,
"country_id": 933,
"region_name": "Pacific Ocean",
"country_name": "Federated States of Micronesia",
"location_name": "Pohnpei State",
"is_un": 0,
"is_mtp_location": 1,
"admin_level": 4,
"featured_img": "3hQpZaXRbcsxCkmpgaOxbx",
"airports": "PNI",
"visitors": 461,
"rank": 261,
"visitors_un": 0,
"rank_un": 0
},
{
"id": 59,
"weather": "global/stations/91812",
"weatherhist": "21819",
"active": "Y",
"lat": -10.8499532,
"lon": -165.8388698,
"distance": 99,
"zoom": 5,
"region_id": 991,
"country_id": 925,
"region_name": "Pacific Ocean",
"country_name": "Cook Islands",
"location_name": "Pukapuka (and Suwarrow)",
"is_un": 0,
"is_mtp_location": 1,
"admin_level": 4,
"featured_img": "3mM6siAxWtV7ZBhYO0dC4j",
"airports": "PZK",
"visitors": 66,
"rank": 55,
"visitors_un": 0,
"rank_un": 0
},
{
"id": 60,
"weather": "global/stations/94578",
"weatherhist": "87549",
"active": "Y",
"lat": -20.9175738,
"lon": 142.7027956,
"distance": 800,
"zoom": 5,
"region_id": 991,
"country_id": 917,
"region_name": "Pacific Ocean",
"country_name": "Australia",
"location_name": "Queensland",
"is_un": 0,
"is_mtp_location": 1,
"admin_level": 4,
"featured_img": "3s78K5rQGcC2QTMA09GIDV",
"airports": "BNE, CNS",
"visitors": 5816,
"rank": 797,
"visitors_un": 0,
"rank_un": 0
},
{
"id": 61,
"weather": "global/stations/76723",
"weatherhist": "32767",
"active": "Y",
"lat": 18.79197,
"lon": -110.98826,
"distance": 250,
"zoom": 7,
"region_id": 990,
"country_id": 948,
"region_name": "North America",
"country_name": "Mexico",
"location_name": "Revillagigedo Islands",
"is_un": 0,
"is_mtp_location": 1,
"admin_level": 4,
"featured_img": "3yXcibO9v9BckZHSHN4R01",
"airports": "SJD",
"visitors": 83,
"rank": 70,
"visitors_un": 0,
"rank_un": 0
},
{
"id": 62,
"weather": "global/stations/91650",
"weatherhist": "05619",
"active": "Y",
"lat": -12.5025069,
"lon": 177.0724164,
"distance": 7,
"zoom": 6,
"region_id": 991,
"country_id": 934,
"region_name": "Pacific Ocean",
"country_name": "Fiji",
"location_name": "Rotuma",
"is_un": 0,
"is_mtp_location": 1,
"admin_level": 4,
"featured_img": "41xoFcMOkFSAczsgtOTq0L",
"airports": "RTA",
"visitors": 107,
"rank": 88,
"visitors_un": 0,
"rank_un": 0
},
{
"id": 63,
"weather": "global/stations/47931",
"weatherhist": "13974",
"active": "Y",
"lat": 26.5,
"lon": 128,
"distance": 320,
"zoom": 6,
"region_id": 983,
"country_id": 943,
"region_name": "Asia",
"country_name": "Japan",
"location_name": "Ryukyu Islands",
"is_un": 0,
"is_mtp_location": 1,
"admin_level": 4,
"featured_img": "45T1gFlgRlR4zfEe3BnjyP",
"airports": "OKA",
"visitors": 836,
"rank": 374,
"visitors_un": 0,
"rank_un": 0
},
{
"id": 64,
"weather": "global/stations/91765",
"weatherhist": "56719",
"active": "Y",
"lat": -14.306407,
"lon": -170.6950175,
"distance": 25,
"zoom": 6,
"region_id": 991,
"country_id": 977,
"region_name": "Pacific Ocean",
"country_name": "United States",
"location_name": "American Samoa",
"is_un": 0,
"is_mtp_location": 1,
"admin_level": 4,
"featured_img": "4Bar8YH0Q8wzmM5hTvPGd3",
"airports": "PPG",
"visitors": 598,
"rank": 300,
"visitors_un": 0,
"rank_un": 0
},
{
"id": 65,
"weather": "global/stations/91762",
"weatherhist": "26719",
"active": "Y",
"lat": -13.759029,
"lon": -172.104629,
"distance": 50,
"zoom": 6,
"region_id": 991,
"country_id": 65,
"region_name": "Pacific Ocean",
"country_name": "Samoa",
"location_name": "Samoa",
"is_un": 1,
"is_mtp_location": 1,
"admin_level": 2,
"featured_img": "4HrMm6PCcrVfF2H2ER0gEX",
"airports": "APW",
"visitors": 927,
"rank": 397,
"visitors_un": 927,
"rank_un": 40
},
{
"id": 66,
"weather": "global/stations/91938",
"weatherhist": "83919",
"active": "Y",
"lat": -17,
"lon": -150,
"distance": 200,
"zoom": 4,
"region_id": 991,
"country_id": 264,
"region_name": "Pacific Ocean",
"country_name": "France",
"location_name": "Society Islands",
"is_un": 0,
"is_mtp_location": 1,
"admin_level": 4,
"featured_img": "4LuZAwLBHehBhRWfS69B8f",
"airports": "PPT",
"visitors": 1527,
"rank": 495,
"visitors_un": 0,
"rank_un": 0
},
{
"id": 67,
"weather": "global/stations/91520",
"weatherhist": "02519",
"active": "Y",
"lat": -9.64571,
"lon": 160.156194,
"distance": 275,
"zoom": 6,
"region_id": 991,
"country_id": 962,
"region_name": "Pacific Ocean",
"country_name": "Solomon Islands",
"location_name": "Solomon Islands (Main Group)",
"is_un": 0,
"is_mtp_location": 1,
"admin_level": 4,
"featured_img": "4PwoCbWNPRv9Oo86HZopYL",
"airports": "HIR",
"visitors": 607,
"rank": 302,
"visitors_un": 0,
"rank_un": 0
},
{
"id": 68,
"weather": "global/stations/94672",
"weatherhist": "27649",
"active": "Y",
"lat": -30.0002315,
"lon": 136.2091547,
"distance": 600,
"zoom": 5,
"region_id": 991,
"country_id": 917,
"region_name": "Pacific Ocean",
"country_name": "Australia",
"location_name": "South Australia",
"is_un": 0,
"is_mtp_location": 1,
"admin_level": 4,
"featured_img": "4UG7oXQDULwKeD7pHWRh8v",
"airports": "ADL",
"visitors": 3311,
"rank": 662,
"visitors_un": 0,
"rank_un": 0
},
{
"id": 69,
"weather": "global/stations/94975",
"weatherhist": "57949",
"active": "Y",
"lat": -41.3650419,
"lon": 146.6284905,
"distance": 150,
"zoom": 6,
"region_id": 991,
"country_id": 917,
"region_name": "Pacific Ocean",
"country_name": "Australia",
"location_name": "Tasmania",
"is_un": 0,
"is_mtp_location": 1,
"admin_level": 4,
"featured_img": "4a8CxLjrYpztQtrRfsewzl",
"airports": "HBA",
"visitors": 1913,
"rank": 545,
"visitors_un": 0,
"rank_un": 0
},
{
"id": 70,
"weather": "global/stations/91541",
"weatherhist": "14519",
"active": "Y",
"lat": -10.686929,
"lon": 166.0623979,
"distance": 110,
"zoom": 6,
"region_id": 991,
"country_id": 962,
"region_name": "Pacific Ocean",
"country_name": "Solomon Islands",
"location_name": "Temotu Province (Santa Cruz Islands)",
"is_un": 0,
"is_mtp_location": 1,
"admin_level": 4,
"featured_img": "4abvBaSg8QKc1gi7QRKVjh",
"airports": "SCZ",
"visitors": 83,
"rank": 70,
"visitors_un": 0,
"rank_un": 0
},
{
"id": 71,
"weather": "global/stations/91723",
"weatherhist": "32719",
"active": "Y",
"lat": -9.1043,
"lon": -171.7825,
"distance": 65,
"zoom": 5,
"region_id": 991,
"country_id": 44,
"region_name": "Pacific Ocean",
"country_name": "New Zealand",
"location_name": "Tokelau Islands",
"is_un": 0,
"is_mtp_location": 1,
"admin_level": 4,
"featured_img": "4g7kMOtPNY1gy8DKDcNHkj",
"airports": "APW",
"visitors": 102,
"rank": 83,
"visitors_un": 0,
"rank_un": 0
},
{
"id": 72,
"weather": "global/stations/91879",
"weatherhist": "97819",
"active": "Y",
"lat": -21.178986,
"lon": -175.198242,
"distance": 125,
"zoom": 6,
"region_id": 991,
"country_id": 72,
"region_name": "Pacific Ocean",
"country_name": "Tonga",
"location_name": "Tonga",
"is_un": 1,
"is_mtp_location": 1,
"admin_level": 2,
"featured_img": "4jiBLKLql7sLZren6NdF4n",
"airports": "TBU",
"visitors": 912,
"rank": 395,
"visitors_un": 912,
"rank_un": 38
},
{
"id": 73,
"weather": "global/stations/94174",
"weatherhist": "47149",
"active": "Y",
"lat": -10.5,
"lon": 142.25,
"distance": 65,
"zoom": 6,
"region_id": 991,
"country_id": 917,
"region_name": "Pacific Ocean",
"country_name": "Australia",
"location_name": "Torres Straits Islands",
"is_un": 0,
"is_mtp_location": 1,
"admin_level": 4,
"featured_img": "4qOTCjX5002ZGgR8MgDf6D",
"airports": "TIS",
"visitors": 166,
"rank": 129,
"visitors_un": 0,
"rank_un": 0
},
{
"id": 74,
"weather": "global/stations/92077",
"weatherhist": "77029",
"active": "Y",
"lat": -8.6375,
"lon": 150.8525,
"distance": 40,
"zoom": 6,
"region_id": 991,
"country_id": 956,
"region_name": "Pacific Ocean",
"country_name": "Papua New Guinea",
"location_name": "Trobriand Islands",
"is_un": 0,
"is_mtp_location": 1,
"admin_level": 4,
"featured_img": "4rpzxA4Hma7G0JOoEz1hnB",
"airports": "LSA",
"visitors": 117,
"rank": 93,
"visitors_un": 0,
"rank_un": 0
},
{
"id": 75,
"weather": "global/stations/91941",
"weatherhist": "14919",
"active": "Y",
"lat": -27.5666667,
"lon": -144.3166667,
"distance": 600,
"zoom": 4,
"region_id": 991,
"country_id": 264,
"region_name": "Pacific Ocean",
"country_name": "France",
"location_name": "Tuamotu Islands",
"is_un": 0,
"is_mtp_location": 1,
"admin_level": 4,
"featured_img": "4tdRTK5vGyecu79UZLqKZ3",
"airports": "RGI",
"visitors": 434,
"rank": 248,
"visitors_un": 0,
"rank_un": 0
},
{
"id": 76,
"weather": "global/stations/91643",
"weatherhist": "34619",
"active": "Y",
"lat": -7.4784418,
"lon": 178.6799214,
"distance": 300,
"zoom": 6,
"region_id": 991,
"country_id": 76,
"region_name": "Pacific Ocean",
"country_name": "Tuvalu",
"location_name": "Tuvalu",
"is_un": 1,
"is_mtp_location": 1,
"admin_level": 2,
"featured_img": "4y0HJEp6cBCbTvOSo3oWLd",
"airports": "FUN",
"visitors": 339,
"rank": 215,
"visitors_un": 339,
"rank_un": 2
},
{
"id": 77,
"weather": "global/stations/91557",
"weatherhist": "75519",
"active": "Y",
"lat": -15.376706,
"lon": 166.959158,
"distance": 350,
"zoom": 6,
"region_id": 991,
"country_id": 77,
"region_name": "Pacific Ocean",
"country_name": "Vanuatu",
"location_name": "Vanuatu",
"is_un": 1,
"is_mtp_location": 1,
"admin_level": 2,
"featured_img": "50l8MF9C8FMK9HVfnryiYX",
"airports": "VLI",
"visitors": 1125,
"rank": 438,
"visitors_un": 1125,
"rank_un": 49
},
{
"id": 78,
"weather": "global/stations/94866",
"weatherhist": "66849",
"active": "Y",
"lat": -37.81411,
"lon": 144.433333,
"distance": 300,
"zoom": 6,
"region_id": 991,
"country_id": 917,
"region_name": "Pacific Ocean",
"country_name": "Australia",
"location_name": "Victoria State",
"is_un": 0,
"is_mtp_location": 1,
"admin_level": 4,
"featured_img": "5APc1Nd1hrY9DoILSXp8FZ",
"airports": "MEL",
"visitors": 4908,
"rank": 756,
"visitors_un": 0,
"rank_un": 0
},
{
"id": 79,
"weather": "global/stations/91245",
"weatherhist": "54219",
"active": "Y",
"lat": 19.2823192,
"lon": 166.647047,
"distance": 99,
"zoom": 5,
"region_id": 991,
"country_id": 977,
"region_name": "Pacific Ocean",
"country_name": "United States",
"location_name": "Wake Island",
"is_un": 0,
"is_mtp_location": 1,
"admin_level": 4,
"featured_img": "5N2kDSc66BkTaaZ7fwiGpZ",
"airports": "HNL",
"visitors": 123,
"rank": 97,
"visitors_un": 0,
"rank_un": 0
},
{
"id": 80,
"weather": "global/stations/91753",
"weatherhist": "35719",
"active": "Y",
"lat": -13.2959105,
"lon": -176.2056843,
"distance": 85,
"zoom": 6,
"region_id": 991,
"country_id": 264,
"region_name": "Pacific Ocean",
"country_name": "France",
"location_name": "Wallis and Futuna Islands",
"is_un": 0,
"is_mtp_location": 1,
"admin_level": 4,
"featured_img": "5PzgSaPZR8ebDr25FKzcWD",
"airports": "WLS",
"visitors": 175,
"rank": 136,
"visitors_un": 0,
"rank_un": 0
},
{
"id": 81,
"weather": "global/stations/94610",
"weatherhist": "01649",
"active": "Y",
"lat": -27.6728168,
"lon": 121.6283098,
"distance": 850,
"zoom": 4,
"region_id": 991,
"country_id": 917,
"region_name": "Pacific Ocean",
"country_name": "Australia",
"location_name": "Western Australia",
"is_un": 0,
"is_mtp_location": 1,
"admin_level": 4,
"featured_img": "5SgSqIcK1AXzdHnxxboiJp",
"airports": "PER",
"visitors": 2610,
"rank": 616,
"visitors_un": 0,
"rank_un": 0
},
{
"id": 82,
"weather": "global/stations/91413",
"weatherhist": "31419",
"active": "Y",
"lat": 9.5391372,
"lon": 138.1258916,
"distance": 10,
"zoom": 7,
"region_id": 991,
"country_id": 933,
"region_name": "Pacific Ocean",
"country_name": "Federated States of Micronesia",
"location_name": "Yap State",
"is_un": 0,
"is_mtp_location": 1,
"admin_level": 4,
"featured_img": "5YHhMNubClhdKnZindWaVx",
"airports": "YAP",
"visitors": 421,
"rank": 241,
"visitors_un": 0,
"rank_un": 0
},
{
"id": 83,
"weather": "US/AL/Birmingham",
"weatherhist": "mahgn",
"active": "Y",
"lat": 32.3182314,
"lon": -86.902298,
"distance": 180,
"zoom": 6,
"region_id": 990,
"country_id": 977,
"region_name": "North America",
"country_name": "United States",
"location_name": "Alabama",
"is_un": 0,
"is_mtp_location": 1,
"admin_level": 4,
"featured_img": "5eBHyEjKPl13CM1j3qfQQH",
"airports": "BHM, MGM, HSV",
"visitors": 5442,
"rank": 783,
"visitors_un": 0,
"rank_un": 0
},
{
"id": 84,
"weather": "US/AK/Anchorage",
"weatherhist": "egaro",
"active": "Y",
"lat": 64.2008413,
"lon": -149.4936733,
"distance": 1170,
"zoom": 4,
"region_id": 990,
"country_id": 977,
"region_name": "North America",
"country_name": "United States",
"location_name": "Alaska",
"is_un": 0,
"is_mtp_location": 1,
"admin_level": 4,
"featured_img": "5i5GDzs18Xm8hrl9vF1bGX",
"airports": "ANC, JNU, OME",
"visitors": 3880,
"rank": 694,
"visitors_un": 0,
"rank_un": 0
},
{
"id": 85,
"weather": "global/stations/71123",
"weatherhist": "32117",
"active": "Y",
"lat": 53.9332706,
"lon": -116.5765035,
"distance": 440,
"zoom": 5,
"region_id": 990,
"country_id": 920,
"region_name": "North America",
"country_name": "Canada",
"location_name": "Alberta",
"is_un": 0,
"is_mtp_location": 1,
"admin_level": 4,
"featured_img": "5lgEqufYX7kevbDJctzPNV",
"airports": "YYC, YEA",
"visitors": 4368,
"rank": 725,
"visitors_un": 0,
"rank_un": 0
},
{
"id": 86,
"weather": "US/AZ/Phoenix",
"weatherhist": "xineo",
"active": "Y",
"lat": 34.0489281,
"lon": -111.0937311,
"distance": 250,
"zoom": 6,
"region_id": 990,
"country_id": 977,
"region_name": "North America",
"country_name": "United States",
"location_name": "Arizona",
"is_un": 0,
"is_mtp_location": 1,
"admin_level": 4,
"featured_img": "5oZx7VfyWUFITPsFqAxuXt",
"airports": "PHX",
"visitors": 9865,
"rank": 873,
"visitors_un": 0,
"rank_un": 0
},
{
"id": 87,
"weather": null,
"weatherhist": null,
"active": "N",
"lat": null,
"lon": null,
"distance": null,
"zoom": 0,
"region_id": 990,
"country_id": 948,
"region_name": "North America",
"country_name": "Mexico",
"location_name": "Baja California (Norte and Sur)",
"is_un": 0,
"is_mtp_location": 1,
"admin_level": 4,
"featured_img": null,
"airports": null,
"visitors": 1,
"rank": 0,
"visitors_un": 0,
"rank_un": 0
},
{
"id": 88,
"weather": "global/stations/71892",
"weatherhist": "29817",
"active": "Y",
"lat": 53.7266683,
"lon": -127.6476206,
"distance": 630,
"zoom": 5,
"region_id": 990,
"country_id": 920,
"region_name": "North America",
"country_name": "Canada",
"location_name": "British Columbia",
"is_un": 0,
"is_mtp_location": 1,
"admin_level": 4,
"featured_img": "5svD7v2KIvIHdL2aELAisP",
"airports": "YVR, YYJ",
"visitors": 7456,
"rank": 838,
"visitors_un": 0,
"rank_un": 0
},
{
"id": 89,
"weather": "US/CA/Los_Angeles",
"weatherhist": "seleg",
"active": "Y",
"lat": 36.778261,
"lon": -119.4179324,
"distance": 420,
"zoom": 6,
"region_id": 990,
"country_id": 977,
"region_name": "North America",
"country_name": "United States",
"location_name": "California",
"is_un": 0,
"is_mtp_location": 1,
"admin_level": 4,
"featured_img": "5xvUEekjsZLgTG8RIOVYVB",
"airports": "LAX, SFO, SMF",
"visitors": 13314,
"rank": 888,
"visitors_un": 0,
"rank_un": 0
},
{
"id": 90,
"weather": "global/stations/76843",
"weatherhist": "34867",
"active": "Y",
"lat": 16.3224417,
"lon": -91.7910619,
"distance": 140,
"zoom": 7,
"region_id": 990,
"country_id": 948,
"region_name": "North America",
"country_name": "Mexico",
"location_name": "Chiapas",
"is_un": 0,
"is_mtp_location": 1,
"admin_level": 4,
"featured_img": "60zRW5hLWgqiOSOqavIQ97",
"airports": "TGX",
"visitors": 1880,
"rank": 540,
"visitors_un": 0,
"rank_un": 0
},
{
"id": 91,
"weather": "US/CO/Denver",
"weatherhist": "revne",
"active": "Y",
"lat": 39.5500507,
"lon": -105.7820674,
"distance": 240,
"zoom": 6,
"region_id": 990,
"country_id": 977,
"region_name": "North America",
"country_name": "United States",
"location_name": "Colorado",
"is_un": 0,
"is_mtp_location": 1,
"admin_level": 4,
"featured_img": "64xfcKRu15fb59jAuxU9Ph",
"airports": "DEN",
"visitors": 8372,
"rank": 853,
"visitors_un": 0,
"rank_un": 0
},
{
"id": 92,
"weather": "US/CT/Hartford",
"weatherhist": "droft",
"active": "Y",
"lat": 41.6032207,
"lon": -73.087749,
"distance": 60,
"zoom": 7,
"region_id": 990,
"country_id": 977,
"region_name": "North America",
"country_name": "United States",
"location_name": "Connecticut",
"is_un": 0,
"is_mtp_location": 1,
"admin_level": 4,
"featured_img": "67hloyjLbFAkB18SQyNOSj",
"airports": "BDL",
"visitors": 7409,
"rank": 837,
"visitors_un": 0,
"rank_un": 0
},
{
"id": 93,
"weather": "US/DE/Wilmington",
"weatherhist": "notgn",
"active": "Y",
"lat": 38.9108325,
"lon": -75.5276699,
"distance": 50,
"zoom": 8,
"region_id": 990,
"country_id": 977,
"region_name": "North America",
"country_name": "United States",
"location_name": "Delaware",
"is_un": 0,
"is_mtp_location": 1,
"admin_level": 4,
"featured_img": "6DJYgkJId5vBPpYeGMVFUr",
"airports": "PHL",
"visitors": 6462,
"rank": 814,
"visitors_un": 0,
"rank_un": 0
},
{
"id": 94,
"weather": "US/DC/Washington",
"weatherhist": "notgn",
"active": "Y",
"lat": 38.9071923,
"lon": -77.0368707,
"distance": 8,
"zoom": 10,
"region_id": 990,
"country_id": 977,
"region_name": "North America",
"country_name": "United States",
"location_name": "District of Columbia",
"is_un": 0,
"is_mtp_location": 1,
"admin_level": 4,
"featured_img": "6GIHYXxuUUzT5V4GPPiSuD",
"airports": "IAD, DCA",
"visitors": 9808,
"rank": 872,
"visitors_un": 0,
"rank_un": 0
},
{
"id": 95,
"weather": "US/FL/Miami",
"weatherhist": "imaiM",
"active": "Y",
"lat": 27.6648274,
"lon": -81.5157535,
"distance": 350,
"zoom": 6,
"region_id": 990,
"country_id": 977,
"region_name": "North America",
"country_name": "United States",
"location_name": "Florida",
"is_un": 0,
"is_mtp_location": 1,
"admin_level": 4,
"featured_img": "6LUM3pWcYoqSo0ofRXI2yj",
"airports": "MIA, MCO, FLL",
"visitors": 12386,
"rank": 886,
"visitors_un": 0,
"rank_un": 0
},
{
"id": 96,
"weather": "US/GA/Atlanta",
"weatherhist": "atnal",
"active": "Y",
"lat": 32.1656221,
"lon": -82.9000751,
"distance": 200,
"zoom": 6,
"region_id": 990,
"country_id": 977,
"region_name": "North America",
"country_name": "United States",
"location_name": "Georgia, State",
"is_un": 0,
"is_mtp_location": 1,
"admin_level": 4,
"featured_img": "6QlM2wURUXCFjBxeZLAAFp",
"airports": "TBS",
"visitors": 8354,
"rank": 852,
"visitors_un": 0,
"rank_un": 0
},
{
"id": 97,
"weather": "US/ID/Boise",
"weatherhist": "esioB",
"active": "Y",
"lat": 44.0682019,
"lon": -114.7420408,
"distance": 300,
"zoom": 6,
"region_id": 990,
"country_id": 977,
"region_name": "North America",
"country_name": "United States",
"location_name": "Idaho",
"is_un": 0,
"is_mtp_location": 1,
"admin_level": 4,
"featured_img": "6TMW2fQMUaCJ2YScHLaWOz",
"airports": "BOI, SUN",
"visitors": 4855,
"rank": 752,
"visitors_un": 0,
"rank_un": 0
},
{
"id": 98,
"weather": "US/IL/Chicago",
"weatherhist": "ogaci",
"active": "Y",
"lat": 40.6331249,
"lon": -89.3985283,
"distance": 210,
"zoom": 6,
"region_id": 990,
"country_id": 977,
"region_name": "North America",
"country_name": "United States",
"location_name": "Illinois",
"is_un": 0,
"is_mtp_location": 1,
"admin_level": 4,
"featured_img": "6Z3N2Mzn5eO1zQbWLjNMuz",
"airports": "ORD",
"visitors": 9456,
"rank": 868,
"visitors_un": 0,
"rank_un": 0
},
{
"id": 99,
"weather": "US/IN/Indianapolis",
"weatherhist": "silop",
"active": "Y",
"lat": 40.2671941,
"lon": -86.1349019,
"distance": 170,
"zoom": 6,
"region_id": 990,
"country_id": 977,
"region_name": "North America",
"country_name": "United States",
"location_name": "Indiana",
"is_un": 0,
"is_mtp_location": 1,
"admin_level": 4,
"featured_img": "6dq7GUcOdpbEabwRJ6b5Yr",
"airports": "IND",
"visitors": 6367,
"rank": 813,
"visitors_un": 0,
"rank_un": 0
},
{
"id": 100,
"weather": "US/IA/Des_Moines",
"weatherhist": "senio",
"active": "Y",
"lat": 41.8780025,
"lon": -93.097702,
"distance": 180,
"zoom": 5,
"region_id": 990,
"country_id": 977,
"region_name": "North America",
"country_name": "United States",
"location_name": "Iowa",
"is_un": 0,
"is_mtp_location": 1,
"admin_level": 4,
"featured_img": "6kXyk0CeH4k41UnqbRogtZ",
"airports": "DSM",
"visitors": 4791,
"rank": 749,
"visitors_un": 0,
"rank_un": 0
},
{
"id": 101,
"weather": "US/KS/Kansas_City",
"weatherhist": "ytiC_",
"active": "Y",
"lat": 39.011902,
"lon": -98.4842465,
"distance": 230,
"zoom": 6,
"region_id": 990,
"country_id": 977,
"region_name": "North America",
"country_name": "United States",
"location_name": "Kansas",
"is_un": 0,
"is_mtp_location": 1,
"admin_level": 4,
"featured_img": "6mDWK7IPzglNMricAn80XF",
"airports": "MCI, ICT",
"visitors": 4927,
"rank": 757,
"visitors_un": 0,
"rank_un": 0
},
{
"id": 102,
"weather": "US/KY/Louisville",
"weatherhist": "elliv",
"active": "Y",
"lat": 37.8393332,
"lon": -84.2700179,
"distance": 210,
"zoom": 6,
"region_id": 990,
"country_id": 977,
"region_name": "North America",
"country_name": "United States",
"location_name": "Kentucky",
"is_un": 0,
"is_mtp_location": 1,
"admin_level": 4,
"featured_img": "6pIRDjfzilvdPkoh7qDfFV",
"airports": "SDF",
"visitors": 5655,
"rank": 789,
"visitors_un": 0,
"rank_un": 0
},
{
"id": 103,
"weather": "global/stations/71816",
"weatherhist": "61817",
"active": "Y",
"lat": 55.333333,
"lon": -61.483333,
"distance": 370,
"zoom": 5,
"region_id": 990,
"country_id": 920,
"region_name": "North America",
"country_name": "Canada",
"location_name": "Labrador",
"is_un": 0,
"is_mtp_location": 1,
"admin_level": 4,
"featured_img": "6s8MQHhwBchz4OgTBz4IDV",
"airports": "YYR",
"visitors": 646,
"rank": 316,
"visitors_un": 0,
"rank_un": 0
},
{
"id": 104,
"weather": "US/LA/New_Orleans",
"weatherhist": "snael",
"active": "Y",
"lat": 30.9842977,
"lon": -91.9623327,
"distance": 210,
"zoom": 6,
"region_id": 990,
"country_id": 977,
"region_name": "North America",
"country_name": "United States",
"location_name": "Louisiana",
"is_un": 0,
"is_mtp_location": 1,
"admin_level": 4,
"featured_img": "6v1FVfWLCNU8TPd3Iy661t",
"airports": "MSY",
"visitors": 6896,
"rank": 822,
"visitors_un": 0,
"rank_un": 0
},
{
"id": 105,
"weather": "US/ME/Portland",
"weatherhist": "dnalt",
"active": "Y",
"lat": 45.253783,
"lon": -69.4454689,
"distance": 160,
"zoom": 7,
"region_id": 990,
"country_id": 977,
"region_name": "North America",
"country_name": "United States",
"location_name": "Maine",
"is_un": 0,
"is_mtp_location": 1,
"admin_level": 4,
"featured_img": "6xvMz10VXScpm6ERx6boyr",
"airports": "PWM",
"visitors": 5874,
"rank": 798,
"visitors_un": 0,
"rank_un": 0
},
{
"id": 106,
"weather": "global/stations/71852",
"weatherhist": "25817",
"active": "Y",
"lat": 53.7608608,
"lon": -98.8138763,
"distance": 420,
"zoom": 5,
"region_id": 990,
"country_id": 920,
"region_name": "North America",
"country_name": "Canada",
"location_name": "Manitoba",
"is_un": 0,
"is_mtp_location": 1,
"admin_level": 4,
"featured_img": "71k69rUBidGNkO88Grp51J",
"airports": "YWG",
"visitors": 1965,
"rank": 553,
"visitors_un": 0,
"rank_un": 0
},
{
"id": 107,
"weather": "US/MD/Baltimore",
"weatherhist": "eromi",
"active": "Y",
"lat": 39.0457549,
"lon": -76.6412712,
"distance": 130,
"zoom": 7,
"region_id": 990,
"country_id": 977,
"region_name": "North America",
"country_name": "United States",
"location_name": "Maryland",
"is_un": 0,
"is_mtp_location": 1,
"admin_level": 4,
"featured_img": "7AG4oDzIkh24T7jHtHioW5",
"airports": "BWI",
"visitors": 8557,
"rank": 857,
"visitors_un": 0,
"rank_un": 0
},
{
"id": 108,
"weather": "US/MA/Boston",
"weatherhist": "notso",
"active": "Y",
"lat": 42.4072107,
"lon": -71.3824374,
"distance": 120,
"zoom": 6,
"region_id": 990,
"country_id": 977,
"region_name": "North America",
"country_name": "United States",
"location_name": "Massachusetts",
"is_un": 0,
"is_mtp_location": 1,
"admin_level": 4,
"featured_img": "7BrAG3RFeZOQg72sllL8Cj",
"airports": "BOS, BDL, PVC",
"visitors": 9261,
"rank": 866,
"visitors_un": 0,
"rank_un": 0
},
{
"id": 109,
"weather": null,
"weatherhist": null,
"active": "N",
"lat": null,
"lon": null,
"distance": null,
"zoom": 0,
"region_id": 990,
"country_id": 948,
"region_name": "North America",
"country_name": "Mexico",
"location_name": "Mexico (North/Central)",
"is_un": 0,
"is_mtp_location": 1,
"admin_level": 4,
"featured_img": null,
"airports": null,
"visitors": 5,
"rank": 0,
"visitors_un": 0,
"rank_un": 0
},
{
"id": 110,
"weather": "US/MI/Detroit",
"weatherhist": "tiort",
"active": "Y",
"lat": 44.3148443,
"lon": -85.6023643,
"distance": 280,
"zoom": 5,
"region_id": 990,
"country_id": 977,
"region_name": "North America",
"country_name": "United States",
"location_name": "Michigan",
"is_un": 0,
"is_mtp_location": 1,
"admin_level": 4,
"featured_img": "7I7dQ0iR3azYM6qZlG4KfV",
"airports": "DTW",
"visitors": 6810,
"rank": 821,
"visitors_un": 0,
"rank_un": 0
},
{
"id": 111,
"weather": "US/MN/Minneapolis",
"weatherhist": "silop",
"active": "Y",
"lat": 46.729553,
"lon": -94.6858998,
"distance": 250,
"zoom": 5,
"region_id": 990,
"country_id": 977,
"region_name": "North America",
"country_name": "United States",
"location_name": "Minnesota",
"is_un": 0,
"is_mtp_location": 1,
"admin_level": 4,
"featured_img": "7LIJUZOHf6V2MqCFnUy0hJ",
"airports": "MSP",
"visitors": 5546,
"rank": 785,
"visitors_un": 0,
"rank_un": 0
},
{
"id": 112,
"weather": "US/MS/Jackson",
"weatherhist": "noskc",
"active": "Y",
"lat": 32.3546679,
"lon": -89.3985283,
"distance": 180,
"zoom": 6,
"region_id": 990,
"country_id": 977,
"region_name": "North America",
"country_name": "United States",
"location_name": "Mississippi",
"is_un": 0,
"is_mtp_location": 1,
"admin_level": 4,
"featured_img": "7R3b2iYvSDj7lJIrwNI3Xp",
"airports": "JAN",
"visitors": 5439,
"rank": 782,
"visitors_un": 0,
"rank_un": 0
},
{
"id": 113,
"weather": "US/MO/Saint_Louis",
"weatherhist": "siuoL",
"active": "Y",
"lat": 37.9642529,
"lon": -91.8318334,
"distance": 230,
"zoom": 6,
"region_id": 990,
"country_id": 977,
"region_name": "North America",
"country_name": "United States",
"location_name": "Missouri",
"is_un": 0,
"is_mtp_location": 1,
"admin_level": 4,
"featured_img": "7USZOpGKgoA0NGuiLDD4Hd",
"airports": "STL, MCI",
"visitors": 5776,
"rank": 795,
"visitors_un": 0,
"rank_un": 0
},
{
"id": 114,
"weather": "US/MT/Billings",
"weatherhist": "sgnil",
"active": "Y",
"lat": 46.8796822,
"lon": -110.3625658,
"distance": 320,
"zoom": 6,
"region_id": 990,
"country_id": 977,
"region_name": "North America",
"country_name": "United States",
"location_name": "Montana",
"is_un": 0,
"is_mtp_location": 1,
"admin_level": 4,
"featured_img": "7aK6pMKXjRbXqeEdtfpwM9",
"airports": "BIL",
"visitors": 4906,
"rank": 755,
"visitors_un": 0,
"rank_un": 0
},
{
"id": 115,
"weather": "US/NE/Omaha",
"weatherhist": "ahamO",
"active": "Y",
"lat": 41.4925374,
"lon": -99.9018131,
"distance": 250,
"zoom": 6,
"region_id": 990,
"country_id": 977,
"region_name": "North America",
"country_name": "United States",
"location_name": "Nebraska",
"is_un": 0,
"is_mtp_location": 1,
"admin_level": 4,
"featured_img": "7b7CTGkJCbNHatJ9AnS71J",
"airports": "OMA",
"visitors": 4272,
"rank": 718,
"visitors_un": 0,
"rank_un": 0
},
{
"id": 116,
"weather": "US/NV/Las_Vegas",
"weatherhist": "sageV",
"active": "Y",
"lat": 38.8026097,
"lon": -116.419389,
"distance": 290,
"zoom": 6,
"region_id": 990,
"country_id": 977,
"region_name": "North America",
"country_name": "United States",
"location_name": "Nevada",
"is_un": 0,
"is_mtp_location": 1,
"admin_level": 4,
"featured_img": "7gj0BZhueK62ugLjRMzdRV",
"airports": "LAS, RNO",
"visitors": 10632,
"rank": 881,
"visitors_un": 0,
"rank_un": 0
},
{
"id": 117,
"weather": "global/stations/71700",
"weatherhist": "00717",
"active": "Y",
"lat": 46.766666,
"lon": -66.366666,
"distance": 135,
"zoom": 7,
"region_id": 990,
"country_id": 920,
"region_name": "North America",
"country_name": "Canada",
"location_name": "New Brunswick",
"is_un": 0,
"is_mtp_location": 1,
"admin_level": 4,
"featured_img": "7jQrfjxp2SQsFtVestr429",
"airports": "YFC",
"visitors": 2307,
"rank": 590,
"visitors_un": 0,
"rank_un": 0
},
{
"id": 118,
"weather": "US/NH/Manchester",
"weatherhist": "retse",
"active": "Y",
"lat": 43.1938516,
"lon": -71.5723953,
"distance": 100,
"zoom": 6,
"region_id": 990,
"country_id": 977,
"region_name": "North America",
"country_name": "United States",
"location_name": "New Hampshire",
"is_un": 0,
"is_mtp_location": 1,
"admin_level": 4,
"featured_img": "ynh3K4I99KlflmjMEPev",
"airports": "MHT",
"visitors": 6152,
"rank": 810,
"visitors_un": 0,
"rank_un": 0
},
{
"id": 119,
"weather": "US/NJ/Atlantic_City",
"weatherhist": "ytiC_",
"active": "Y",
"lat": 40.0583238,
"lon": -74.4056612,
"distance": 90,
"zoom": 8,
"region_id": 990,
"country_id": 977,
"region_name": "North America",
"country_name": "United States",
"location_name": "New Jersey",
"is_un": 0,
"is_mtp_location": 1,
"admin_level": 4,
"featured_img": "3gnprP8VxUNkBj1PwFiVZ",
"airports": "EWR",
"visitors": 10737,
"rank": 882,
"visitors_un": 0,
"rank_un": 0
},
{
"id": 120,
"weather": "US/NM/Albuquerque",
"weatherhist": "euqre",
"active": "Y",
"lat": 34.5199402,
"lon": -105.8700901,
"distance": 270,
"zoom": 6,
"region_id": 990,
"country_id": 977,
"region_name": "North America",
"country_name": "United States",
"location_name": "New Mexico",
"is_un": 0,
"is_mtp_location": 1,
"admin_level": 4,
"featured_img": "49h9lwtbOWdaqz4g0vZwD",
"airports": "ABQ, SAF",
"visitors": 6335,
"rank": 812,
"visitors_un": 0,
"rank_un": 0
},
{
"id": 121,
"weather": "US/NY/Manhattan",
"weatherhist": "natta",
"active": "Y",
"lat": 40.7127837,
"lon": -74.0059413,
"distance": 230,
"zoom": 6,
"region_id": 990,
"country_id": 977,
"region_name": "North America",
"country_name": "United States",
"location_name": "New York",
"is_un": 0,
"is_mtp_location": 1,
"admin_level": 4,
"featured_img": "9nMzRtBawdox5B8MRDOZx",
"airports": "JFK, LGA",
"visitors": 14386,
"rank": 890,
"visitors_un": 0,
"rank_un": 0
},
{
"id": 122,
"weather": "global/stations/71801",
"weatherhist": "10817",
"active": "Y",
"lat": 49.1189881,
"lon": -56.0296249,
"distance": 200,
"zoom": 6,
"region_id": 990,
"country_id": 920,
"region_name": "North America",
"country_name": "Canada",
"location_name": "Newfoundland",
"is_un": 0,
"is_mtp_location": 1,
"admin_level": 4,
"featured_img": "GqeaSnKK2jfd0AKgWa0IX",
"airports": "YYT",
"visitors": 1645,
"rank": 502,
"visitors_un": 0,
"rank_un": 0
},
{
"id": 123,
"weather": "US/NC/Charlotte",
"weatherhist": "ettol",
"active": "Y",
"lat": 35.7595731,
"lon": -79.0192997,
"distance": 250,
"zoom": 6,
"region_id": 990,
"country_id": 977,
"region_name": "North America",
"country_name": "United States",
"location_name": "North Carolina",
"is_un": 0,
"is_mtp_location": 1,
"admin_level": 4,
"featured_img": "JqrF22uAzhsgc9WIynhnR",
"airports": "CLT, RDU",
"visitors": 7311,
"rank": 835,
"visitors_un": 0,
"rank_un": 0
},
{
"id": 124,
"weather": "US/ND/Bismarck",
"weatherhist": "kcram",
"active": "Y",
"lat": 47.5514926,
"lon": -101.0020119,
"distance": 210,
"zoom": 6,
"region_id": 990,
"country_id": 977,
"region_name": "North America",
"country_name": "United States",
"location_name": "North Dakota",
"is_un": 0,
"is_mtp_location": 1,
"admin_level": 4,
"featured_img": "MbTa7XBAJCRx7ZpGfxdZF",
"airports": "FAR",
"visitors": 2919,
"rank": 638,
"visitors_un": 0,
"rank_un": 0
},
{
"id": 125,
"weather": "global/stations/71936",
"weatherhist": "63917",
"active": "Y",
"lat": 64.8255441,
"lon": -124.8457334,
"distance": 890,
"zoom": 4,
"region_id": 990,
"country_id": 920,
"region_name": "North America",
"country_name": "Canada",
"location_name": "Northwest Territories",
"is_un": 0,
"is_mtp_location": 1,
"admin_level": 4,
"featured_img": "QKn5rJziL7WAih0DNyP9R",
"airports": "YZF",
"visitors": 762,
"rank": 351,
"visitors_un": 0,
"rank_un": 0
},
{
"id": 126,
"weather": "global/stations/71395",
"weatherhist": "59317",
"active": "Y",
"lat": 44.6819866,
"lon": -63.744311,
"distance": 180,
"zoom": 7,
"region_id": 990,
"country_id": 920,
"region_name": "North America",
"country_name": "Canada",
"location_name": "Nova Scotia",
"is_un": 0,
"is_mtp_location": 1,
"admin_level": 4,
"featured_img": "QmFvnPTD9XGZetX9qjhfB",
"airports": "YHZ",
"visitors": 2779,
"rank": 630,
"visitors_un": 0,
"rank_un": 0
},
{
"id": 127,
"weather": "global/stations/71909",
"weatherhist": "90917",
"active": "Y",
"lat": 70.2997711,
"lon": -83.1075769,
"distance": 880,
"zoom": 4,
"region_id": 990,
"country_id": 920,
"region_name": "North America",
"country_name": "Canada",
"location_name": "Nunavut",
"is_un": 0,
"is_mtp_location": 1,
"admin_level": 4,
"featured_img": "WgKKnmIUNKE8VpOkYyMur",
"airports": "YFB",
"visitors": 378,
"rank": 229,
"visitors_un": 0,
"rank_un": 0
},
{
"id": 128,
"weather": "US/OH/Columbus",
"weatherhist": "submu",
"active": "Y",
"lat": 40.4172871,
"lon": -82.907123,
"distance": 150,
"zoom": 6,
"region_id": 990,
"country_id": 977,
"region_name": "North America",
"country_name": "United States",
"location_name": "Ohio",
"is_un": 0,
"is_mtp_location": 1,
"admin_level": 4,
"featured_img": "aNX23bnebmSFAV6LOMSlR",
"airports": "CLE, CVG",
"visitors": 6919,
"rank": 825,
"visitors_un": 0,
"rank_un": 0
},
{
"id": 129,
"weather": "US/OK/Oklahoma_City",
"weatherhist": "ytiC_",
"active": "Y",
"lat": 35.4675602,
"lon": -97.5164276,
"distance": 270,
"zoom": 6,
"region_id": 990,
"country_id": 977,
"region_name": "North America",
"country_name": "United States",
"location_name": "Oklahoma",
"is_un": 0,
"is_mtp_location": 1,
"admin_level": 4,
"featured_img": "dHtIww6LvivLZtMUdjuvd",
"airports": "OKC",
"visitors": 4482,
"rank": 733,
"visitors_un": 0,
"rank_un": 0
},
{
"id": 130,
"weather": "global/stations/71265",
"weatherhist": "56217",
"active": "Y",
"lat": 49.75,
"lon": -83.95,
"distance": 550,
"zoom": 5,
"region_id": 990,
"country_id": 920,
"region_name": "North America",
"country_name": "Canada",
"location_name": "Ontario",
"is_un": 0,
"is_mtp_location": 1,
"admin_level": 4,
"featured_img": "eYfK6OiibFx7wR6YLTEa5",
"airports": "YYZ",
"visitors": 8861,
"rank": 861,
"visitors_un": 0,
"rank_un": 0
},
{
"id": 131,
"weather": "US/OR/Portland",
"weatherhist": "dnalt",
"active": "Y",
"lat": 43.8041334,
"lon": -120.5542012,
"distance": 240,
"zoom": 6,
"region_id": 990,
"country_id": 977,
"region_name": "North America",
"country_name": "United States",
"location_name": "Oregon",
"is_un": 0,
"is_mtp_location": 1,
"admin_level": 4,
"featured_img": "iFHnbn06nQOohqBDqQfWf",
"airports": "PDX",
"visitors": 5946,
"rank": 800,
"visitors_un": 0,
"rank_un": 0
},
{
"id": 132,
"weather": "US/PA/Philadelphia",
"weatherhist": "aihpl",
"active": "Y",
"lat": 41.2033216,
"lon": -77.1945247,
"distance": 170,
"zoom": 7,
"region_id": 990,
"country_id": 977,
"region_name": "North America",
"country_name": "United States",
"location_name": "Pennsylvania",
"is_un": 0,
"is_mtp_location": 1,
"admin_level": 4,
"featured_img": "lPoMBOqlyMmUBgP3EoaI1",
"airports": "PHL, PIT",
"visitors": 9361,
"rank": 867,
"visitors_un": 0,
"rank_un": 0
},
{
"id": 133,
"weather": "global/stations/71706",
"weatherhist": "60717",
"active": "Y",
"lat": 46.510712,
"lon": -63.4168136,
"distance": 65,
"zoom": 8,
"region_id": 990,
"country_id": 920,
"region_name": "North America",
"country_name": "Canada",
"location_name": "Prince Edward Island",
"is_un": 0,
"is_mtp_location": 1,
"admin_level": 4,
"featured_img": "oT5C8k7ynEQ2JpNhvDh1h",
"airports": "YYG",
"visitors": 1744,
"rank": 518,
"visitors_un": 0,
"rank_un": 0
},
{
"id": 134,
"weather": "global/stations/71627",
"weatherhist": "72617",
"active": "Y",
"lat": 52.9399159,
"lon": -73.5491361,
"distance": 630,
"zoom": 5,
"region_id": 990,
"country_id": 920,
"region_name": "North America",
"country_name": "Canada",
"location_name": "Quebec",
"is_un": 0,
"is_mtp_location": 1,
"admin_level": 4,
"featured_img": "uIwYMnoXghgOw7A6kxY5N",
"airports": "YUL",
"visitors": 6913,
"rank": 823,
"visitors_un": 0,
"rank_un": 0
},
{
"id": 135,
"weather": "US/RI/Providence",
"weatherhist": "ecned",
"active": "Y",
"lat": 41.5800945,
"lon": -71.4774291,
"distance": 30,
"zoom": 7,
"region_id": 990,
"country_id": 977,
"region_name": "North America",
"country_name": "United States",
"location_name": "Rhode Island",
"is_un": 0,
"is_mtp_location": 1,
"admin_level": 4,
"featured_img": "1050wAtLPYbP2BwCi0b2BJ",
"airports": "PVD",
"visitors": 5933,
"rank": 799,
"visitors_un": 0,
"rank_un": 0
},
{
"id": 136,
"weather": "global/stations/71600",
"weatherhist": "00617",
"active": "Y",
"lat": 43.9337207,
"lon": -59.9149138,
"distance": 12,
"zoom": 7,
"region_id": 990,
"country_id": 920,
"region_name": "North America",
"country_name": "Canada",
"location_name": "Sable Island",
"is_un": 0,
"is_mtp_location": 1,
"admin_level": 4,
"featured_img": "14zLRm8ljEoO9QJYHAe2Fp",
"airports": "YSA",
"visitors": 91,
"rank": 77,
"visitors_un": 0,
"rank_un": 0
},
{
"id": 137,
"weather": "global/stations/71707",
"weatherhist": "70717",
"active": "Y",
"lat": 47.2046892,
"lon": -60.1508798,
"distance": 2,
"zoom": 7,
"region_id": 990,
"country_id": 920,
"region_name": "North America",
"country_name": "Canada",
"location_name": "St. Paul Island, Nova Scotia",
"is_un": 0,
"is_mtp_location": 1,
"admin_level": 4,
"featured_img": "17qgCfTofDA5OPZukjEF37",
"airports": "YQY",
"visitors": 218,
"rank": 159,
"visitors_un": 0,
"rank_un": 0
},
{
"id": 138,
"weather": "global/stations/71805",
"weatherhist": "50817",
"active": "Y",
"lat": 46.8852,
"lon": -56.3159,
"distance": 20,
"zoom": 6,
"region_id": 990,
"country_id": 264,
"region_name": "North America",
"country_name": "France",
"location_name": "St. Pierre and Miquelon",
"is_un": 0,
"is_mtp_location": 1,
"admin_level": 4,
"featured_img": "19VRQbmHH8rbFWp5SDW6vd",
"airports": "FSP",
"visitors": 445,
"rank": 255,
"visitors_un": 0,
"rank_un": 0
},
{
"id": 139,
"weather": "global/stations/71863",
"weatherhist": "66827",
"active": "Y",
"lat": 52.9399159,
"lon": -106.4508639,
"distance": 430,
"zoom": 5,
"region_id": 990,
"country_id": 920,
"region_name": "North America",
"country_name": "Canada",
"location_name": "Saskatchewan",
"is_un": 0,
"is_mtp_location": 1,
"admin_level": 4,
"featured_img": "5z5lfIEtQhEPJlUAtwXyKE",
"airports": "YQR",
"visitors": 1755,
"rank": 521,
"visitors_un": 0,
"rank_un": 0
},
{
"id": 140,
"weather": "US/SC/Charleston",
"weatherhist": "notse",
"active": "Y",
"lat": 33.836081,
"lon": -81.1637245,
"distance": 145,
"zoom": 6,
"region_id": 990,
"country_id": 977,
"region_name": "North America",
"country_name": "United States",
"location_name": "South Carolina",
"is_un": 0,
"is_mtp_location": 1,
"admin_level": 4,
"featured_img": "3X0uGpH9gGebcw7MHSqn1R",
"airports": "CHS",
"visitors": 6606,
"rank": 815,
"visitors_un": 0,
"rank_un": 0
},
{
"id": 141,
"weather": "US/SD/Sioux_Falls",
"weatherhist": "sllaF",
"active": "Y",
"lat": 43.9695148,
"lon": -99.9018131,
"distance": 230,
"zoom": 6,
"region_id": 990,
"country_id": 977,
"region_name": "North America",
"country_name": "United States",
"location_name": "South Dakota",
"is_un": 0,
"is_mtp_location": 1,
"admin_level": 4,
"featured_img": "3dCQ7po2UJtd71HnBLcoFp",
"airports": "FSD",
"visitors": 3923,
"rank": 697,
"visitors_un": 0,
"rank_un": 0
},
{
"id": 142,
"weather": "US/TN/Nashville",
"weatherhist": "elliv",
"active": "Y",
"lat": 35.5174913,
"lon": -86.5804473,
"distance": 250,
"zoom": 6,
"region_id": 990,
"country_id": 977,
"region_name": "North America",
"country_name": "United States",
"location_name": "Tennessee",
"is_un": 0,
"is_mtp_location": 1,
"admin_level": 4,
"featured_img": "3j5EH4xx4M9olFWyH5ZEuz",
"airports": "MEM",
"visitors": 6661,
"rank": 816,
"visitors_un": 0,
"rank_un": 0
},
{
"id": 143,
"weather": "US/TX/Dallas",
"weatherhist": "salla",
"active": "Y",
"lat": 31.9685988,
"lon": -99.9018131,
"distance": 410,
"zoom": 6,
"region_id": 990,
"country_id": 977,
"region_name": "North America",
"country_name": "United States",
"location_name": "Texas",
"is_un": 0,
"is_mtp_location": 1,
"admin_level": 4,
"featured_img": "3nyoUdRRYtc3b14LmCCQTF",
"airports": "DFW, IAH",
"visitors": 9135,
"rank": 865,
"visitors_un": 0,
"rank_un": 0
},
{
"id": 144,
"weather": "US/NY/Manhattan",
"weatherhist": "natta",
"active": "Y",
"lat": 40.7488758,
"lon": -73.9680091,
"distance": 0.2,
"zoom": 10,
"region_id": 990,
"country_id": 144,
"region_name": "North America",
"country_name": "United Nations Headquarters (New York)",
"location_name": "UN Headquarters (New York)",
"is_un": 0,
"is_mtp_location": 1,
"admin_level": 2,
"featured_img": "3u2UCg9uewYoicpfS1xbnp",
"airports": "JFK, LGA",
"visitors": 5997,
"rank": 802,
"visitors_un": 0,
"rank_un": 0
},
{
"id": 145,
"weather": "US/UT/Salt_Lake_City",
"weatherhist": "ytiC_",
"active": "Y",
"lat": 39.3209801,
"lon": -111.0937311,
"distance": 220,
"zoom": 6,
"region_id": 990,
"country_id": 977,
"region_name": "North America",
"country_name": "United States",
"location_name": "Utah",
"is_un": 0,
"is_mtp_location": 1,
"admin_level": 4,
"featured_img": "42qX0vM6vQ5kHf1FgBY1Yz",
"airports": "SLC",
"visitors": 7593,
"rank": 839,
"visitors_un": 0,
"rank_un": 0
},
{
"id": 146,
"weather": "US/VT/Woodstock",
"weatherhist": "kcots",
"active": "Y",
"lat": 44.5588028,
"lon": -72.5778415,
"distance": 90,
"zoom": 7,
"region_id": 990,
"country_id": 977,
"region_name": "North America",
"country_name": "United States",
"location_name": "Vermont",
"is_un": 0,
"is_mtp_location": 1,
"admin_level": 4,
"featured_img": "477KWX3MZAv8A85Q7YRi05",
"airports": "BTV",
"visitors": 5786,
"rank": 796,
"visitors_un": 0,
"rank_un": 0
},
{
"id": 147,
"weather": "US/VA/Richmond",
"weatherhist": "dnomh",
"active": "Y",
"lat": 37.4315734,
"lon": -78.6568942,
"distance": 240,
"zoom": 6,
"region_id": 990,
"country_id": 977,
"region_name": "North America",
"country_name": "United States",
"location_name": "Virginia",
"is_un": 0,
"is_mtp_location": 1,
"admin_level": 4,
"featured_img": "4AdVvbIV6fb9HuqaTzRlCX",
"airports": "IAD, ORF",
"visitors": 8544,
"rank": 856,
"visitors_un": 0,
"rank_un": 0
},
{
"id": 148,
"weather": "US/WA/Seattle",
"weatherhist": "eltta",
"active": "Y",
"lat": 47.2755146,
"lon": -120.8506483,
"distance": 200,
"zoom": 6,
"region_id": 990,
"country_id": 977,
"region_name": "North America",
"country_name": "United States",
"location_name": "Washington",
"is_un": 0,
"is_mtp_location": 1,
"admin_level": 4,
"featured_img": "4G2aFxpnneJPrEhYMcCccH",
"airports": "SEA",
"visitors": 8100,
"rank": 845,
"visitors_un": 0,
"rank_un": 0
},
{
"id": 149,
"weather": "US/WV/Charleston",
"weatherhist": "notse",
"active": "Y",
"lat": 38.5976262,
"lon": -80.4549026,
"distance": 140,
"zoom": 7,
"region_id": 990,
"country_id": 977,
"region_name": "North America",
"country_name": "United States",
"location_name": "West Virginia",
"is_un": 0,
"is_mtp_location": 1,
"admin_level": 4,
"featured_img": "4LNQOVwyUP8OymEIShVaqz",
"airports": "CRW",
"visitors": 5685,
"rank": 791,
"visitors_un": 0,
"rank_un": 0
},
{
"id": 150,
"weather": "US/WI/Madison",
"weatherhist": "nosid",
"active": "Y",
"lat": 43.7844397,
"lon": -88.7878678,
"distance": 180,
"zoom": 5,
"region_id": 990,
"country_id": 977,
"region_name": "North America",
"country_name": "United States",
"location_name": "Wisconsin",
"is_un": 0,
"is_mtp_location": 1,
"admin_level": 4,
"featured_img": "4OVCilVVg1J1QIfbiVgrQT",
"airports": "MKE",
"visitors": 5261,
"rank": 776,
"visitors_un": 0,
"rank_un": 0
},
{
"id": 151,
"weather": "US/WY/Cheyenne",
"weatherhist": "enney",
"active": "Y",
"lat": 43.0759678,
"lon": -107.2902839,
"distance": 230,
"zoom": 6,
"region_id": 990,
"country_id": 977,
"region_name": "North America",
"country_name": "United States",
"location_name": "Wyoming",
"is_un": 0,
"is_mtp_location": 1,
"admin_level": 4,
"featured_img": "4SJMEyfrsi9BNgEHpVAx6z",
"airports": "CYS",
"visitors": 5398,
"rank": 779,
"visitors_un": 0,
"rank_un": 0
},
{
"id": 152,
"weather": null,
"weatherhist": null,
"active": "N",
"lat": null,
"lon": null,
"distance": null,
"zoom": 0,
"region_id": 990,
"country_id": 948,
"region_name": "North America",
"country_name": "Mexico",
"location_name": "Yucatan Peninsula (Campeche, Quintana Roo, Tabasco)",
"is_un": 0,
"is_mtp_location": 1,
"admin_level": 4,
"featured_img": null,
"airports": null,
"visitors": 5,
"rank": 0,
"visitors_un": 0,
"rank_un": 0
},
{
"id": 153,
"weather": "global/stations/71964",
"weatherhist": "46917",
"active": "Y",
"lat": 64.2823274,
"lon": -135,
"distance": 450,
"zoom": 5,
"region_id": 990,
"country_id": 920,
"region_name": "North America",
"country_name": "Canada",
"location_name": "Yukon Territory",
"is_un": 0,
"is_mtp_location": 1,
"admin_level": 4,
"featured_img": "4YNgiUhwq1uLEUbOeAoTL3",
"airports": "YXY",
"visitors": 1316,
"rank": 466,
"visitors_un": 0,
"rank_un": 0
},
{
"id": 154,
"weather": "global/stations/78583",
"weatherhist": "38587",
"active": "Y",
"lat": 17.189877,
"lon": -88.49765,
"distance": 100,
"zoom": 7,
"region_id": 986,
"country_id": 154,
"region_name": "Central America",
"country_name": "Belize",
"location_name": "Belize",
"is_un": 1,
"is_mtp_location": 1,
"admin_level": 2,
"featured_img": "4dyf6TQ49asKiQ9NuRL1zB",
"airports": "BZE, SPR",
"visitors": 3833,
"rank": 692,
"visitors_un": 3833,
"rank_un": 114
},
{
"id": 155,
"weather": "global/stations/78760",
"weatherhist": "06787",
"active": "Y",
"lat": 5.5333,
"lon": -87.0667,
"distance": 99,
"zoom": 8,
"region_id": 986,
"country_id": 926,
"region_name": "Central America",
"country_name": "Costa Rica",
"location_name": "Cocos Island",
"is_un": 0,
"is_mtp_location": 1,
"admin_level": 4,
"featured_img": "4efXKFhIMHjlsFGIlpqhsj",
"airports": "SJO",
"visitors": 178,
"rank": 137,
"visitors_un": 0,
"rank_un": 0
},
{
"id": 156,
"weather": "global/stations/78762",
"weatherhist": "26787",
"active": "Y",
"lat": 9.748917,
"lon": -83.753428,
"distance": 150,
"zoom": 7,
"region_id": 986,
"country_id": 926,
"region_name": "Central America",
"country_name": "Costa Rica",
"location_name": "Costa Rica (mainland)",
"is_un": 0,
"is_mtp_location": 1,
"admin_level": 4,
"featured_img": "4kNjpOv07wybPVob3s2Ud3",
"airports": "SJO",
"visitors": 5360,
"rank": 778,
"visitors_un": 0,
"rank_un": 0
},
{
"id": 157,
"weather": "global/stations/78663",
"weatherhist": "36687",
"active": "Y",
"lat": 13.794185,
"lon": -88.89653,
"distance": 90,
"zoom": 8,
"region_id": 986,
"country_id": 157,
"region_name": "Central America",
"country_name": "El Salvador",
"location_name": "El Salvador",
"is_un": 1,
"is_mtp_location": 1,
"admin_level": 2,
"featured_img": "4l2UrNMRw7DrVFtdh84NhN",
"airports": "SSA",
"visitors": 2221,
"rank": 580,
"visitors_un": 2221,
"rank_un": 88
},
{
"id": 158,
"weather": "global/stations/78641",
"weatherhist": "14687",
"active": "Y",
"lat": 15.783471,
"lon": -90.230759,
"distance": 170,
"zoom": 7,
"region_id": 986,
"country_id": 158,
"region_name": "Central America",
"country_name": "Guatemala",
"location_name": "Guatemala",
"is_un": 1,
"is_mtp_location": 1,
"admin_level": 2,
"featured_img": "3fojq1aBLxlH1kvKQpFhrA",
"airports": "GUA",
"visitors": 3993,
"rank": 701,
"visitors_un": 3993,
"rank_un": 120
},
{
"id": 159,
"weather": "global/stations/78720",
"weatherhist": "02787",
"active": "Y",
"lat": 15.199999,
"lon": -86.241905,
"distance": 220,
"zoom": 7,
"region_id": 986,
"country_id": 939,
"region_name": "Central America",
"country_name": "Honduras",
"location_name": "Honduras (mainland)",
"is_un": 0,
"is_mtp_location": 1,
"admin_level": 4,
"featured_img": "10hlE7VshvUWwYC9HIzhfh",
"airports": "TGU, SAP",
"visitors": 2902,
"rank": 637,
"visitors_un": 0,
"rank_un": 0
},
{
"id": 160,
"weather": "global/stations/78741",
"weatherhist": "14787",
"active": "Y",
"lat": 12.865416,
"lon": -85.207229,
"distance": 180,
"zoom": 7,
"region_id": 986,
"country_id": 160,
"region_name": "Central America",
"country_name": "Nicaragua",
"location_name": "Nicaragua",
"is_un": 1,
"is_mtp_location": 1,
"admin_level": 2,
"featured_img": "15vHZobfpA49oUow39dafd",
"airports": "MGA",
"visitors": 2760,
"rank": 628,
"visitors_un": 2760,
"rank_un": 97
},
{
"id": 161,
"weather": "global/stations/78806",
"weatherhist": "60887",
"active": "Y",
"lat": 8.537981,
"lon": -80.782127,
"distance": 220,
"zoom": 6,
"region_id": 986,
"country_id": 955,
"region_name": "Central America",
"country_name": "Panama",
"location_name": "Panama (mainland)",
"is_un": 0,
"is_mtp_location": 1,
"admin_level": 4,
"featured_img": "194fdmdl0kfugIcvi5yDa1",
"airports": "PTY",
"visitors": 4401,
"rank": 730,
"visitors_un": 0,
"rank_un": 0
},
{
"id": 162,
"weather": "global/stations/78789",
"weatherhist": "98787",
"active": "Y",
"lat": 9.57,
"lon": -78.82,
"distance": 60,
"zoom": 8,
"region_id": 986,
"country_id": 955,
"region_name": "Central America",
"country_name": "Panama",
"location_name": "San Blas Islands",
"is_un": 0,
"is_mtp_location": 1,
"admin_level": 4,
"featured_img": "1KlE8AnQIH0mSJtuxwCLtN",
"airports": "PYC",
"visitors": 961,
"rank": 406,
"visitors_un": 0,
"rank_un": 0
},
{
"id": 164,
"weather": "global/stations/85201",
"weatherhist": "10258",
"active": "Y",
"lat": -16.290154,
"lon": -63.588653,
"distance": 500,
"zoom": 5,
"region_id": 992,
"country_id": 164,
"region_name": "South America",
"country_name": "Bolivia",
"location_name": "Bolivia",
"is_un": 1,
"is_mtp_location": 1,
"admin_level": 2,
"featured_img": "1NWjrpHzWuQtGG9rZSB8kH",
"airports": "VVI, LPB",
"visitors": 2944,
"rank": 640,
"visitors_un": 2944,
"rank_un": 101
},
{
"id": 166,
"weather": "global/stations/85574",
"weatherhist": "47558",
"active": "Y",
"lat": -35.675147,
"lon": -71.542969,
"distance": 1350,
"zoom": 4,
"region_id": 992,
"country_id": 921,
"region_name": "South America",
"country_name": "Chile",
"location_name": "Chile (mainland)",
"is_un": 0,
"is_mtp_location": 1,
"admin_level": 4,
"featured_img": "1QSsr1TkaAgE5BSlEtyEM1",
"airports": "SCL, PMT, PUQ",
"visitors": 5106,
"rank": 769,
"visitors_un": 0,
"rank_un": 0
},
{
"id": 167,
"weather": "global/stations/80222",
"weatherhist": "22208",
"active": "Y",
"lat": 4.570868,
"lon": -74.297333,
"distance": 600,
"zoom": 6,
"region_id": 992,
"country_id": 923,
"region_name": "South America",
"country_name": "Colombia",
"location_name": "Colombia (mainland)",
"is_un": 0,
"is_mtp_location": 1,
"admin_level": 4,
"featured_img": "1W4CbBV0rcAvhQKjnfeP9R",
"airports": "BOG, MDE, CTG",
"visitors": 3821,
"rank": 690,
"visitors_un": 0,
"rank_un": 0
},
{
"id": 168,
"weather": "global/stations/84071",
"weatherhist": "17048",
"active": "Y",
"lat": -1.831239,
"lon": -78.183406,
"distance": 250,
"zoom": 6,
"region_id": 992,
"country_id": 930,
"region_name": "South America",
"country_name": "Ecuador",
"location_name": "Ecuador (Mainland)",
"is_un": 0,
"is_mtp_location": 1,
"admin_level": 4,
"featured_img": "1ZQ6goLC2hdXyqQoNbazYT",
"airports": "UIO, GYE",
"visitors": 3672,
"rank": 680,
"visitors_un": 0,
"rank_un": 0
},
{
"id": 169,
"weather": "global/stations/81405",
"weatherhist": "50418",
"active": "Y",
"lat": 3.933889,
"lon": -53.125782,
"distance": 145,
"zoom": 7,
"region_id": 992,
"country_id": 264,
"region_name": "South America",
"country_name": "France",
"location_name": "French Guiana",
"is_un": 0,
"is_mtp_location": 1,
"admin_level": 4,
"featured_img": "1eBkYD4xHpVhdmhNXhrz01",
"airports": "CAY",
"visitors": 797,
"rank": 361,
"visitors_un": 0,
"rank_un": 0
},
{
"id": 170,
"weather": "global/stations/81001",
"weatherhist": "10018",
"active": "Y",
"lat": 4.860416,
"lon": -58.93018,
"distance": 260,
"zoom": 6,
"region_id": 992,
"country_id": 170,
"region_name": "South America",
"country_name": "Guyana",
"location_name": "Guyana",
"is_un": 1,
"is_mtp_location": 1,
"admin_level": 2,
"featured_img": "1eYkyAeSmfFrwP23djdd8P",
"airports": "GEO",
"visitors": 866,
"rank": 385,
"visitors_un": 866,
"rank_un": 37
},
{
"id": 171,
"weather": "global/stations/85585",
"weatherhist": "58558",
"active": "Y",
"lat": -33.645139,
"lon": -78.823189,
"distance": 60,
"zoom": 6,
"region_id": 992,
"country_id": 921,
"region_name": "South America",
"country_name": "Chile",
"location_name": "Juan Fernandez Islands",
"is_un": 0,
"is_mtp_location": 1,
"admin_level": 4,
"featured_img": "1jeWzAGJL0UJG9MTiZ6wEH",
"airports": "SCL",
"visitors": 174,
"rank": 135,
"visitors_un": 0,
"rank_un": 0
},
{
"id": 172,
"weather": "global/stations/80252",
"weatherhist": "25208",
"active": "Y",
"lat": 4.0061111,
"lon": -81.5936111,
"distance": 2,
"zoom": 10,
"region_id": 992,
"country_id": 923,
"region_name": "South America",
"country_name": "Colombia",
"location_name": "Malpelo Island",
"is_un": 0,
"is_mtp_location": 1,
"admin_level": 4,
"featured_img": "1mXA1XG5BM9mIhLehGI6pR",
"airports": "SJO",
"visitors": 69,
"rank": 60,
"visitors_un": 0,
"rank_un": 0
},
{
"id": 173,
"weather": "global/stations/86218",
"weatherhist": "81268",
"active": "Y",
"lat": -23.442503,
"lon": -58.443832,
"distance": 350,
"zoom": 6,
"region_id": 992,
"country_id": 173,
"region_name": "South America",
"country_name": "Paraguay",
"location_name": "Paraguay",
"is_un": 1,
"is_mtp_location": 1,
"admin_level": 2,
"featured_img": "1pRGwq5vyavVCvtK6L8jVN",
"airports": "ASU",
"visitors": 2540,
"rank": 613,
"visitors_un": 2540,
"rank_un": 92
},
{
"id": 174,
"weather": "global/stations/84628",
"weatherhist": "82648",
"active": "Y",
"lat": -9.189967,
"lon": -75.015152,
"distance": 700,
"zoom": 5,
"region_id": 992,
"country_id": 174,
"region_name": "South America",
"country_name": "Peru",
"location_name": "Peru",
"is_un": 1,
"is_mtp_location": 1,
"admin_level": 2,
"featured_img": "1upLif8NdynAXbDMgrVmLl",
"airports": "LIM",
"visitors": 5464,
"rank": 784,
"visitors_un": 5464,
"rank_un": 143
},
{
"id": 175,
"weather": "global/stations/85442",
"weatherhist": "24458",
"active": "Y",
"lat": -26.32,
"lon": -80,
"distance": 99,
"zoom": 5,
"region_id": 992,
"country_id": 921,
"region_name": "South America",
"country_name": "Chile",
"location_name": "Desventuradas Islands",
"is_un": 0,
"is_mtp_location": 1,
"admin_level": 4,
"featured_img": "1vbmBMmVAmpH54TZSCawBh",
"airports": "SCL",
"visitors": 59,
"rank": 50,
"visitors_un": 0,
"rank_un": 0
},
{
"id": 176,
"weather": "global/stations/81200",
"weatherhist": "00218",
"active": "Y",
"lat": 3.919305,
"lon": -56.027783,
"distance": 180,
"zoom": 7,
"region_id": 992,
"country_id": 176,
"region_name": "South America",
"country_name": "Suriname",
"location_name": "Suriname",
"is_un": 1,
"is_mtp_location": 1,
"admin_level": 2,
"featured_img": "239wPyKjW7aJtT6RNjvR3F",
"airports": "PBM",
"visitors": 843,
"rank": 377,
"visitors_un": 843,
"rank_un": 34
},
{
"id": 177,
"weather": "global/stations/86580",
"weatherhist": "08568",
"active": "Y",
"lat": -32.522779,
"lon": -55.765835,
"distance": 200,
"zoom": 6,
"region_id": 992,
"country_id": 177,
"region_name": "South America",
"country_name": "Uruguay",
"location_name": "Uruguay",
"is_un": 1,
"is_mtp_location": 1,
"admin_level": 2,
"featured_img": "28mypoB1PuOaD4Lpa2UIBx",
"airports": "MVD, PDP",
"visitors": 3700,
"rank": 682,
"visitors_un": 3700,
"rank_un": 112
},
{
"id": 178,
"weather": "global/stations/80414",
"weatherhist": "41408",
"active": "Y",
"lat": 6.42375,
"lon": -66.58973,
"distance": 500,
"zoom": 6,
"region_id": 992,
"country_id": 178,
"region_name": "South America",
"country_name": "Venezuela",
"location_name": "Venezuela",
"is_un": 1,
"is_mtp_location": 1,
"admin_level": 2,
"featured_img": "2Dw9cexC0pcpNHKRcDrtCn",
"airports": "CCS",
"visitors": 2760,
"rank": 628,
"visitors_un": 2760,
"rank_un": 97
},
{
"id": 179,
"weather": "global/stations/78846",
"weatherhist": "64887",
"active": "Y",
"lat": 18.220554,
"lon": -63.068615,
"distance": 10,
"zoom": 8,
"region_id": 985,
"country_id": 976,
"region_name": "Caribbean",
"country_name": "United Kingdom",
"location_name": "Anguilla",
"is_un": 0,
"is_mtp_location": 1,
"admin_level": 4,
"featured_img": "2Ju6Ql7mYXGCko1UGDxhd7",
"airports": "AXA",
"visitors": 1032,
"rank": 422,
"visitors_un": 0,
"rank_un": 0
},
{
"id": 180,
"weather": "global/stations/78862",
"weatherhist": "26887",
"active": "Y",
"lat": 17.0746557,
"lon": -61.8175207,
"distance": 10,
"zoom": 9,
"region_id": 985,
"country_id": 915,
"region_name": "Caribbean",
"country_name": "Antigua and Barbuda",
"location_name": "Antigua",
"is_un": 0,
"is_mtp_location": 1,
"admin_level": 4,
"featured_img": "2OtS9cxek1NAokG6QieJCf",
"airports": "ANU",
"visitors": 2534,
"rank": 612,
"visitors_un": 0,
"rank_un": 0
},
{
"id": 181,
"weather": "global/stations/78982",
"weatherhist": "28987",
"active": "Y",
"lat": 12.52111,
"lon": -69.968338,
"distance": 12,
"zoom": 9,
"region_id": 985,
"country_id": 301,
"region_name": "Caribbean",
"country_name": "Netherlands",
"location_name": "Aruba",
"is_un": 0,
"is_mtp_location": 1,
"admin_level": 4,
"featured_img": "2UGbvhrDil2LqSbwWV2F49",
"airports": "AUA",
"visitors": 2602,
"rank": 614,
"visitors_un": 0,
"rank_un": 0
},
{
"id": 182,
"weather": "global/stations/80400",
"weatherhist": "00408",
"active": "Y",
"lat": 15.6568792,
"lon": -63.6160235,
"distance": 99,
"zoom": 8,
"region_id": 985,
"country_id": 178,
"region_name": "Caribbean",
"country_name": "Venezuela",
"location_name": "Aves Island",
"is_un": 0,
"is_mtp_location": 1,
"admin_level": 4,
"featured_img": "2aqU73CjaXPJNl2NUpgGnV",
"airports": "PTP",
"visitors": 126,
"rank": 101,
"visitors_un": 0,
"rank_un": 0
},
{
"id": 183,
"weather": "global/stations/78073",
"weatherhist": "37087",
"active": "Y",
"lat": 25.03428,
"lon": -77.39628,
"distance": 275,
"zoom": 6,
"region_id": 984,
"country_id": 183,
"region_name": "Atlantic Ocean",
"country_name": "Bahamas",
"location_name": "Bahamas",
"is_un": 1,
"is_mtp_location": 1,
"admin_level": 2,
"featured_img": "2hLqeBQKdBqSAt8vqmMoY9",
"airports": "NAS, ELH, FPO",
"visitors": 5068,
"rank": 765,
"visitors_un": 5068,
"rank_un": 138
},
{
"id": 184,
"weather": "global/stations/78954",
"weatherhist": "45987",
"active": "Y",
"lat": 13.193887,
"lon": -59.543198,
"distance": 15,
"zoom": 10,
"region_id": 985,
"country_id": 184,
"region_name": "Caribbean",
"country_name": "Barbados",
"location_name": "Barbados",
"is_un": 1,
"is_mtp_location": 1,
"admin_level": 2,
"featured_img": "2mImxfiuRvw8OUiNlyWazd",
"airports": "BGI",
"visitors": 3260,
"rank": 656,
"visitors_un": 3260,
"rank_un": 106
},
{
"id": 185,
"weather": "global/stations/78862",
"weatherhist": "26887",
"active": "Y",
"lat": 17.626798,
"lon": -61.7707288,
"distance": 10,
"zoom": 9,
"region_id": 985,
"country_id": 915,
"region_name": "Caribbean",
"country_name": "Antigua and Barbuda",
"location_name": "Barbuda",
"is_un": 0,
"is_mtp_location": 1,
"admin_level": 4,
"featured_img": "2ppseFvYiyHuHD0hB4mRMz",
"airports": "BBQ",
"visitors": 613,
"rank": 307,
"visitors_un": 0,
"rank_un": 0
},
{
"id": 186,
"weather": "global/stations/78990",
"weatherhist": "09987",
"active": "Y",
"lat": 12.1783611,
"lon": -68.2385339,
"distance": 12,
"zoom": 10,
"region_id": 985,
"country_id": 301,
"region_name": "Caribbean",
"country_name": "Netherlands",
"location_name": "Bonaire",
"is_un": 0,
"is_mtp_location": 1,
"admin_level": 4,
"featured_img": "2wCCyPDjFZvgqxO8eZzQYn",
"airports": "BON",
"visitors": 1256,
"rank": 457,
"visitors_un": 0,
"rank_un": 0
},
{
"id": 187,
"weather": "global/stations/78384",
"weatherhist": "48387",
"active": "Y",
"lat": 19.3133,
"lon": -81.2546,
"distance": 60,
"zoom": 7,
"region_id": 985,
"country_id": 976,
"region_name": "Caribbean",
"country_name": "United Kingdom",
"location_name": "Cayman Islands",
"is_un": 0,
"is_mtp_location": 1,
"admin_level": 4,
"featured_img": "31QxTaXtH2DtKNPuhIANzB",
"airports": "GCM",
"visitors": 2726,
"rank": 624,
"visitors_un": 0,
"rank_un": 0
},
{
"id": 188,
"weather": "global/stations/78224",
"weatherhist": "42287",
"active": "Y",
"lat": 21.521757,
"lon": -77.781167,
"distance": 350,
"zoom": 6,
"region_id": 985,
"country_id": 188,
"region_name": "Caribbean",
"country_name": "Cuba",
"location_name": "Cuba",
"is_un": 1,
"is_mtp_location": 1,
"admin_level": 2,
"featured_img": "37fJ76Imu5MNDK4wTkdmWL",
"airports": "HAV",
"visitors": 4276,
"rank": 719,
"visitors_un": 4276,
"rank_un": 126
},
{
"id": 189,
"weather": "global/stations/78988",
"weatherhist": "88987",
"active": "Y",
"lat": 12.16957,
"lon": -68.99002,
"distance": 20,
"zoom": 10,
"region_id": 985,
"country_id": 301,
"region_name": "Caribbean",
"country_name": "Netherlands",
"location_name": "Curacao",
"is_un": 0,
"is_mtp_location": 1,
"admin_level": 4,
"featured_img": "3CssuALwRwBked29kHQn6b",
"airports": "CUR",
"visitors": 2222,
"rank": 581,
"visitors_un": 0,
"rank_un": 0
},
{
"id": 190,
"weather": "global/stations/78514",
"weatherhist": "41587",
"active": "Y",
"lat": 18.387222,
"lon": -67.471944,
"distance": 1,
"zoom": 9,
"region_id": 985,
"country_id": 977,
"region_name": "Caribbean",
"country_name": "United States",
"location_name": "Desecheo Island",
"is_un": 0,
"is_mtp_location": 1,
"admin_level": 4,
"featured_img": "3Hrz01Rc71eEns7SDFlANB",
"airports": "MAZ, SJU",
"visitors": 44,
"rank": 35,
"visitors_un": 0,
"rank_un": 0
},
{
"id": 191,
"weather": "global/stations/78905",
"weatherhist": "50987",
"active": "Y",
"lat": 15.414999,
"lon": -61.370976,
"distance": 20,
"zoom": 10,
"region_id": 985,
"country_id": 191,
"region_name": "Caribbean",
"country_name": "Dominica",
"location_name": "Dominica",
"is_un": 1,
"is_mtp_location": 1,
"admin_level": 2,
"featured_img": "2g0NOodoEc9EC7G1C3wqO7",
"airports": "DOM, DCF",
"visitors": 1783,
"rank": 526,
"visitors_un": 1783,
"rank_un": 70
},
{
"id": 192,
"weather": "global/stations/78486",
"weatherhist": "68487",
"active": "Y",
"lat": 18.735693,
"lon": -70.162651,
"distance": 140,
"zoom": 7,
"region_id": 985,
"country_id": 192,
"region_name": "Caribbean",
"country_name": "Dominican Republic",
"location_name": "Dominican Republic",
"is_un": 1,
"is_mtp_location": 1,
"admin_level": 2,
"featured_img": "3TsJ9auQ8lpmKLYy4ci629",
"airports": "SDQ, PUJ, POP",
"visitors": 4101,
"rank": 707,
"visitors_un": 4101,
"rank_un": 123
},
{
"id": 193,
"weather": "global/stations/78958",
"weatherhist": "85987",
"active": "Y",
"lat": 12.1165,
"lon": -61.679,
"distance": 12,
"zoom": 7,
"region_id": 985,
"country_id": 193,
"region_name": "Caribbean",
"country_name": "Grenada",
"location_name": "Grenada",
"is_un": 1,
"is_mtp_location": 1,
"admin_level": 2,
"featured_img": "3YwXeDqzxqq18yItFSfXY5",
"airports": "GND",
"visitors": 1839,
"rank": 535,
"visitors_un": 1839,
"rank_un": 75
},
{
"id": 194,
"weather": "global/stations/78951",
"weatherhist": "15987",
"active": "Y",
"lat": 12.4785888,
"lon": -61.4493842,
"distance": 12,
"zoom": 8,
"region_id": 985,
"country_id": 193,
"region_name": "Caribbean",
"country_name": "Grenada",
"location_name": "Carriacou and Petite Martinique",
"is_un": 0,
"is_mtp_location": 1,
"admin_level": 4,
"featured_img": "3ei3wy3Pv026TFRFm53GE1",
"airports": "UNI",
"visitors": 533,
"rank": 279,
"visitors_un": 0,
"rank_un": 0
},
{
"id": 195,
"weather": "global/stations/78951",
"weatherhist": "15987",
"active": "Y",
"lat": 13.0122965,
"lon": -61.2277301,
"distance": 20,
"zoom": 8,
"region_id": 985,
"country_id": 967,
"region_name": "Caribbean",
"country_name": "St. Vincent and Grenadines",
"location_name": "Grenadines Parish",
"is_un": 0,
"is_mtp_location": 1,
"admin_level": 4,
"featured_img": "3hMZ7nWQoXD4jBlZbEblXB",
"airports": "BGI",
"visitors": 892,
"rank": 393,
"visitors_un": 0,
"rank_un": 0
},
{
"id": 196,
"weather": "global/stations/78897",
"weatherhist": "79887",
"active": "Y",
"lat": 16.265,
"lon": -61.551,
"distance": 35,
"zoom": 8,
"region_id": 985,
"country_id": 264,
"region_name": "Caribbean",
"country_name": "France",
"location_name": "Guadeloupe (and Deps.)",
"is_un": 0,
"is_mtp_location": 1,
"admin_level": 4,
"featured_img": "3n12H9jyylPLgla6Ud8y0z",
"airports": "PTP",
"visitors": 1487,
"rank": 488,
"visitors_un": 0,
"rank_un": 0
},
{
"id": 197,
"weather": "global/stations/78367",
"weatherhist": "76387",
"active": "Y",
"lat": 19.933333,
"lon": -75.15,
"distance": 6,
"zoom": 10,
"region_id": 985,
"country_id": 977,
"region_name": "Caribbean",
"country_name": "United States",
"location_name": "Guantanamo Bay Naval Base",
"is_un": 0,
"is_mtp_location": 1,
"admin_level": 4,
"featured_img": "3rxHTcRp2Ndmf7wbjigxLB",
"airports": "GTMO",
"visitors": 172,
"rank": 133,
"visitors_un": 0,
"rank_un": 0
},
{
"id": 198,
"weather": "global/stations/78439",
"weatherhist": "93487",
"active": "Y",
"lat": 18.971187,
"lon": -72.285215,
"distance": 120,
"zoom": 7,
"region_id": 985,
"country_id": 198,
"region_name": "Caribbean",
"country_name": "Haiti",
"location_name": "Haiti",
"is_un": 1,
"is_mtp_location": 1,
"admin_level": 2,
"featured_img": "3vDQOZc7tyIDSQYLKSaozl",
"airports": "PAP",
"visitors": 1688,
"rank": 511,
"visitors_un": 1688,
"rank_un": 65
},
{
"id": 199,
"weather": "global/stations/78397",
"weatherhist": "79387",
"active": "Y",
"lat": 18.109581,
"lon": -77.297508,
"distance": 80,
"zoom": 7,
"region_id": 985,
"country_id": 199,
"region_name": "Caribbean",
"country_name": "Jamaica",
"location_name": "Jamaica",
"is_un": 1,
"is_mtp_location": 1,
"admin_level": 2,
"featured_img": "414Gni5v0y15zs12Zkonl7",
"airports": "KIN MBJ",
"visitors": 3965,
"rank": 699,
"visitors_un": 3965,
"rank_un": 117
},
{
"id": 200,
"weather": "global/stations/78925",
"weatherhist": "52987",
"active": "Y",
"lat": 14.641528,
"lon": -61.024174,
"distance": 20,
"zoom": 9,
"region_id": 985,
"country_id": 264,
"region_name": "Caribbean",
"country_name": "France",
"location_name": "Martinique",
"is_un": 0,
"is_mtp_location": 1,
"admin_level": 4,
"featured_img": "46c6EN0x2FS14EUdjUNYgX",
"airports": "FDF",
"visitors": 1986,
"rank": 555,
"visitors_un": 0,
"rank_un": 0
},
{
"id": 201,
"weather": "global/stations/78856",
"weatherhist": "65887",
"active": "Y",
"lat": 16.742498,
"lon": -62.187366,
"distance": 6,
"zoom": 9,
"region_id": 985,
"country_id": 976,
"region_name": "Caribbean",
"country_name": "United Kingdom",
"location_name": "Montserrat",
"is_un": 0,
"is_mtp_location": 1,
"admin_level": 4,
"featured_img": "4BlcBLERFIKzrggB7I6LSn",
"airports": "MNI",
"visitors": 534,
"rank": 280,
"visitors_un": 0,
"rank_un": 0
},
{
"id": 202,
"weather": "global/stations/78397",
"weatherhist": "79387",
"active": "Y",
"lat": 18.4100689,
"lon": -75.0114612,
"distance": 1,
"zoom": 8,
"region_id": 985,
"country_id": 977,
"region_name": "Caribbean",
"country_name": "United States",
"location_name": "Navassa Island",
"is_un": 0,
"is_mtp_location": 1,
"admin_level": 4,
"featured_img": "4Gzi2pCTkOCcoMKTQXJdfR",
"airports": "PAP",
"visitors": 26,
"rank": 19,
"visitors_un": 0,
"rank_un": 0
},
{
"id": 203,
"weather": "global/stations/78859",
"weatherhist": "95887",
"active": "Y",
"lat": 17.1553558,
"lon": -62.5796026,
"distance": 5,
"zoom": 10,
"region_id": 985,
"country_id": 966,
"region_name": "Caribbean",
"country_name": "St. Kitts and Nevis",
"location_name": "Nevis",
"is_un": 0,
"is_mtp_location": 1,
"admin_level": 4,
"featured_img": "4Nppe1voHSEum5w1N6AF5x",
"airports": "NEV",
"visitors": 1073,
"rank": 426,
"visitors_un": 0,
"rank_un": 0
},
{
"id": 204,
"weather": "global/stations/84721",
"weatherhist": "12748",
"active": "Y",
"lat": 18.220833,
"lon": -66.590149,
"distance": 60,
"zoom": 8,
"region_id": 985,
"country_id": 977,
"region_name": "Caribbean",
"country_name": "United States",
"location_name": "Puerto Rico",
"is_un": 0,
"is_mtp_location": 1,
"admin_level": 4,
"featured_img": "4T0OdrPs8v3zeAilACKoJR",
"airports": "SJU",
"visitors": 4591,
"rank": 740,
"visitors_un": 0,
"rank_un": 0
},
{
"id": 205,
"weather": "global/stations/78862",
"weatherhist": "26887",
"active": "Y",
"lat": 16.938416,
"lon": -62.3455148,
"distance": 1,
"zoom": 9,
"region_id": 985,
"country_id": 915,
"region_name": "Caribbean",
"country_name": "Antigua and Barbuda",
"location_name": "Redonda",
"is_un": 0,
"is_mtp_location": 1,
"admin_level": 4,
"featured_img": "4Y56UIk8ZaR5i5VYWDsTV7",
"airports": "MNI",
"visitors": 103,
"rank": 84,
"visitors_un": 0,
"rank_un": 0
},
{
"id": 206,
"weather": "global/stations/78873",
"weatherhist": "37887",
"active": "Y",
"lat": 17.6354642,
"lon": -63.2326763,
"distance": 2,
"zoom": 10,
"region_id": 985,
"country_id": 301,
"region_name": "Caribbean",
"country_name": "Netherlands",
"location_name": "Saba",
"is_un": 0,
"is_mtp_location": 1,
"admin_level": 4,
"featured_img": "4eDY562Bt4EgkGgwAUcQqj",
"airports": "SAB",
"visitors": 532,
"rank": 278,
"visitors_un": 0,
"rank_un": 0
},
{
"id": 207,
"weather": "global/stations/80001",
"weatherhist": "10008",
"active": "Y",
"lat": 12.5567324,
"lon": -81.7185253,
"distance": 40,
"zoom": 7,
"region_id": 985,
"country_id": 923,
"region_name": "Caribbean",
"country_name": "Colombia",
"location_name": "San Andres and Providencia",
"is_un": 0,
"is_mtp_location": 1,
"admin_level": 4,
"featured_img": "4jc3quYnhFtSxrErfG11CP",
"airports": "ADZ",
"visitors": 624,
"rank": 311,
"visitors_un": 0,
"rank_un": 0
},
{
"id": 208,
"weather": "global/stations/78894",
"weatherhist": "49887",
"active": "Y",
"lat": 17.9005134,
"lon": -62.8205871,
"distance": 5,
"zoom": 9,
"region_id": 985,
"country_id": 264,
"region_name": "Caribbean",
"country_name": "France",
"location_name": "St. Barths",
"is_un": 0,
"is_mtp_location": 1,
"admin_level": 4,
"featured_img": "4pnZfEtis1pciJhecWhgT7",
"airports": "SBH",
"visitors": 1215,
"rank": 451,
"visitors_un": 0,
"rank_un": 0
},
{
"id": 209,
"weather": "global/stations/78547",
"weatherhist": "74587",
"active": "Y",
"lat": 17.7058446,
"lon": -64.858516,
"distance": 15,
"zoom": 8,
"region_id": 985,
"country_id": 977,
"region_name": "Caribbean",
"country_name": "United States",
"location_name": "St. Croix",
"is_un": 0,
"is_mtp_location": 1,
"admin_level": 4,
"featured_img": "4qlI8QJqwsRXwgHXb5q9TZ",
"airports": "STX",
"visitors": 1332,
"rank": 468,
"visitors_un": 0,
"rank_un": 0
},
{
"id": 210,
"weather": "global/stations/78873",
"weatherhist": "37887",
"active": "Y",
"lat": 17.4890306,
"lon": -62.973555,
"distance": 3,
"zoom": 10,
"region_id": 985,
"country_id": 301,
"region_name": "Caribbean",
"country_name": "Netherlands",
"location_name": "St. Eustatius",
"is_un": 0,
"is_mtp_location": 1,
"admin_level": 4,
"featured_img": "2dmQyWFm28IZpFGOhZre6A",
"airports": "EUX",
"visitors": 339,
"rank": 215,
"visitors_un": 0,
"rank_un": 0
},
{
"id": 211,
"weather": "global/stations/78858",
"weatherhist": "85887",
"active": "Y",
"lat": 17.333333,
"lon": -62.75,
"distance": 10,
"zoom": 10,
"region_id": 985,
"country_id": 966,
"region_name": "Caribbean",
"country_name": "St. Kitts and Nevis",
"location_name": "St. Kitts",
"is_un": 0,
"is_mtp_location": 1,
"admin_level": 4,
"featured_img": "PSDvPrUov2lhJz1P8Y7Wn",
"airports": "SKB",
"visitors": 1983,
"rank": 554,
"visitors_un": 0,
"rank_un": 0
},
{
"id": 212,
"weather": "global/stations/78948",
"weatherhist": "84987",
"active": "Y",
"lat": 13.909444,
"lon": -60.978893,
"distance": 15,
"zoom": 10,
"region_id": 985,
"country_id": 212,
"region_name": "Caribbean",
"country_name": "St. Lucia",
"location_name": "St. Lucia",
"is_un": 1,
"is_mtp_location": 1,
"admin_level": 2,
"featured_img": "VNdwIk6n0c7ClvwOZ6JS9",
"airports": "UVF, SLU",
"visitors": 2757,
"rank": 627,
"visitors_un": 2757,
"rank_un": 96
},
{
"id": 213,
"weather": "global/stations/78866",
"weatherhist": "66887",
"active": "Y",
"lat": 18.0412155,
"lon": -63.0530733,
"distance": 6,
"zoom": 9,
"region_id": 985,
"country_id": 301,
"region_name": "Caribbean",
"country_name": "Netherlands",
"location_name": "St. Maarten",
"is_un": 0,
"is_mtp_location": 1,
"admin_level": 4,
"featured_img": "cJJJkZwMu3qFSYeq9A7gL",
"airports": "SXM",
"visitors": 3177,
"rank": 651,
"visitors_un": 0,
"rank_un": 0
},
{
"id": 214,
"weather": "global/stations/78866",
"weatherhist": "66887",
"active": "Y",
"lat": 18.0412155,
"lon": -63.0530733,
"distance": 7,
"zoom": 9,
"region_id": 985,
"country_id": 264,
"region_name": "Caribbean",
"country_name": "France",
"location_name": "St. Martin",
"is_un": 0,
"is_mtp_location": 1,
"admin_level": 4,
"featured_img": "iGv2p4k077PnVDF70CxTh",
"airports": "SFG",
"visitors": 3034,
"rank": 647,
"visitors_un": 0,
"rank_un": 0
},
{
"id": 215,
"weather": "global/stations/78951",
"weatherhist": "15987",
"active": "Y",
"lat": 13.252818,
"lon": -61.1971628,
"distance": 10,
"zoom": 10,
"region_id": 985,
"country_id": 967,
"region_name": "Caribbean",
"country_name": "St. Vincent and Grenadines",
"location_name": "St. Vincent",
"is_un": 0,
"is_mtp_location": 1,
"admin_level": 4,
"featured_img": "ntYch4xR3N7wm9jkSCyz7",
"airports": "SVD",
"visitors": 1350,
"rank": 473,
"visitors_un": 0,
"rank_un": 0
},
{
"id": 216,
"weather": "global/stations/78961",
"weatherhist": "16987",
"active": "Y",
"lat": 11.233333,
"lon": -60.666666,
"distance": 15,
"zoom": 7,
"region_id": 985,
"country_id": 971,
"region_name": "Caribbean",
"country_name": "Trinidad and Tobago",
"location_name": "Tobago",
"is_un": 0,
"is_mtp_location": 1,
"admin_level": 4,
"featured_img": "sttkijovelUpEZFk3NURZ",
"airports": "TAB",
"visitors": 1239,
"rank": 452,
"visitors_un": 0,
"rank_un": 0
},
{
"id": 217,
"weather": "global/stations/78970",
"weatherhist": "07987",
"active": "Y",
"lat": 10.4434041,
"lon": -61.4198351,
"distance": 50,
"zoom": 7,
"region_id": 985,
"country_id": 971,
"region_name": "Caribbean",
"country_name": "Trinidad and Tobago",
"location_name": "Trinidad",
"is_un": 0,
"is_mtp_location": 1,
"admin_level": 4,
"featured_img": "ySxqlaMta2mANEbFA7Yz7",
"airports": "POS",
"visitors": 1772,
"rank": 523,
"visitors_un": 0,
"rank_un": 0
},
{
"id": 218,
"weather": "global/stations/78114",
"weatherhist": "41187",
"active": "N",
"lat": 21.783333,
"lon": -71.733333,
"distance": 50,
"zoom": 7,
"region_id": 984,
"country_id": 976,
"region_name": "Atlantic Ocean",
"country_name": "United Kingdom",
"location_name": "Turks and Caicos Islands",
"is_un": 0,
"is_mtp_location": 1,
"admin_level": 4,
"featured_img": "yjQ3nSUWYNDzu40To8Y1N",
"airports": null,
"visitors": 3,
"rank": 0,
"visitors_un": 0,
"rank_un": 0
},
{
"id": 219,
"weather": "global/stations/78543",
"weatherhist": "34587",
"active": "Y",
"lat": 18.335765,
"lon": -64.896335,
"distance": 15,
"zoom": 9,
"region_id": 985,
"country_id": 977,
"region_name": "Caribbean",
"country_name": "United States",
"location_name": "U.S. Virgin Islands",
"is_un": 0,
"is_mtp_location": 1,
"admin_level": 4,
"featured_img": "14u38ZXjdyXzwtW5q2hP4v",
"airports": "STT",
"visitors": 3429,
"rank": 669,
"visitors_un": 0,
"rank_un": 0
},